[
  {
    "city": "Guangzhou", 
    "lat": "23.1300", 
    "lng": "113.2600", 
    "country": "China", 
    "iso2": "CN", 
    "admin_name": "Guangdong", 
    "capital": "admin", 
    "population": "26940000", 
    "population_proper": "14498400"
  }, 
  {
    "city": "Shanghai", 
    "lat": "31.2286", 
    "lng": "121.4747", 
    "country": "China", 
    "iso2": "CN", 
    "admin_name": "Shanghai", 
    "capital": "admin", 
    "population": "24073000", 
    "population_proper": "24870895"
  }, 
  {
    "city": "Beijing", 
    "lat": "39.9067", 
    "lng": "116.3975", 
    "country": "China", 
    "iso2": "CN", 
    "admin_name": "Beijing", 
    "capital": "primary", 
    "population": "18522000", 
    "population_proper": "18522000"
  }, 
  {
    "city": "Shenzhen", 
    "lat": "22.5415", 
    "lng": "114.0596", 
    "country": "China", 
    "iso2": "CN", 
    "admin_name": "Guangdong", 
    "capital": "minor", 
    "population": "17619000", 
    "population_proper": "12528300"
  }, 
  {
    "city": "Chengdu", 
    "lat": "30.6600", 
    "lng": "104.0633", 
    "country": "China", 
    "iso2": "CN", 
    "admin_name": "Sichuan", 
    "capital": "admin", 
    "population": "14645000", 
    "population_proper": "16044700"
  }, 
  {
    "city": "Xi’an", 
    "lat": "34.2611", 
    "lng": "108.9422", 
    "country": "China", 
    "iso2": "CN", 
    "admin_name": "Shaanxi", 
    "capital": "admin", 
    "population": "12328000", 
    "population_proper": "8989000"
  }, 
  {
    "city": "Chongqing", 
    "lat": "29.5637", 
    "lng": "106.5504", 
    "country": "China", 
    "iso2": "CN", 
    "admin_name": "Chongqing", 
    "capital": "admin", 
    "population": "12135000", 
    "population_proper": "12135000"
  }, 
  {
    "city": "Baoding", 
    "lat": "38.8740", 
    "lng": "115.4640", 
    "country": "China", 
    "iso2": "CN", 
    "admin_name": "Hebei", 
    "capital": "minor", 
    "population": "11544036", 
    "population_proper": "11544036"
  }, 
  {
    "city": "Linyi", 
    "lat": "35.1038", 
    "lng": "118.3564", 
    "country": "China", 
    "iso2": "CN", 
    "admin_name": "Shandong", 
    "capital": "", 
    "population": "11018365", 
    "population_proper": "11018365"
  }, 
  {
    "city": "Dongguan", 
    "lat": "23.0210", 
    "lng": "113.7520", 
    "country": "China", 
    "iso2": "CN", 
    "admin_name": "Guangdong", 
    "capital": "minor", 
    "population": "10646000", 
    "population_proper": "8342500"
  }, 
  {
    "city": "Tianjin", 
    "lat": "39.1336", 
    "lng": "117.2054", 
    "country": "China", 
    "iso2": "CN", 
    "admin_name": "Tianjin", 
    "capital": "admin", 
    "population": "10368000", 
    "population_proper": "13866009"
  }, 
  {
    "city": "Wuhan", 
    "lat": "30.5934", 
    "lng": "114.3046", 
    "country": "China", 
    "iso2": "CN", 
    "admin_name": "Hubei", 
    "capital": "admin", 
    "population": "10251000", 
    "population_proper": "10892900"
  }, 
  {
    "city": "Nanyang", 
    "lat": "32.9987", 
    "lng": "112.5292", 
    "country": "China", 
    "iso2": "CN", 
    "admin_name": "Henan", 
    "capital": "", 
    "population": "9713112", 
    "population_proper": "9713112"
  }, 
  {
    "city": "Hangzhou", 
    "lat": "30.2670", 
    "lng": "120.1530", 
    "country": "China", 
    "iso2": "CN", 
    "admin_name": "Zhejiang", 
    "capital": "admin", 
    "population": "9523000", 
    "population_proper": "9468000"
  }, 
  {
    "city": "Foshan", 
    "lat": "23.0214", 
    "lng": "113.1216", 
    "country": "China", 
    "iso2": "CN", 
    "admin_name": "Guangdong", 
    "capital": "minor", 
    "population": "9498863", 
    "population_proper": "9498863"
  }, 
  {
    "city": "Tongshan", 
    "lat": "34.2040", 
    "lng": "117.2840", 
    "country": "China", 
    "iso2": "CN", 
    "admin_name": "Jiangsu", 
    "capital": "minor", 
    "population": "9083790", 
    "population_proper": "9083790"
  }, 
  {
    "city": "Zhoukou", 
    "lat": "33.6250", 
    "lng": "114.6418", 
    "country": "China", 
    "iso2": "CN", 
    "admin_name": "Henan", 
    "capital": "minor", 
    "population": "9026015", 
    "population_proper": "9026015"
  }, 
  {
    "city": "Ganzhou", 
    "lat": "25.8310", 
    "lng": "114.9330", 
    "country": "China", 
    "iso2": "CN", 
    "admin_name": "Jiangxi", 
    "capital": "minor", 
    "population": "8970014", 
    "population_proper": "8970014"
  }, 
  {
    "city": "Heze", 
    "lat": "35.2343", 
    "lng": "115.4796", 
    "country": "China", 
    "iso2": "CN", 
    "admin_name": "Shandong", 
    "capital": "minor", 
    "population": "8795939", 
    "population_proper": "8795939"
  }, 
  {
    "city": "Quanzhou", 
    "lat": "24.8744", 
    "lng": "118.6757", 
    "country": "China", 
    "iso2": "CN", 
    "admin_name": "Fujian", 
    "capital": "minor", 
    "population": "8782285", 
    "population_proper": "8782285"
  }, 
  {
    "city": "Nanjing", 
    "lat": "32.0608", 
    "lng": "118.7789", 
    "country": "China", 
    "iso2": "CN", 
    "admin_name": "Jiangsu", 
    "capital": "admin", 
    "population": "8422000", 
    "population_proper": "7260000"
  }, 
  {
    "city": "Jining", 
    "lat": "35.4151", 
    "lng": "116.5871", 
    "country": "China", 
    "iso2": "CN", 
    "admin_name": "Shandong", 
    "capital": "", 
    "population": "8357897", 
    "population_proper": "8357897"
  }, 
  {
    "city": "Fuyang", 
    "lat": "32.8900", 
    "lng": "115.8140", 
    "country": "China", 
    "iso2": "CN", 
    "admin_name": "Anhui", 
    "capital": "", 
    "population": "8200264", 
    "population_proper": "8200264"
  }, 
  {
    "city": "Shenyang", 
    "lat": "41.8025", 
    "lng": "123.4281", 
    "country": "China", 
    "iso2": "CN", 
    "admin_name": "Liaoning", 
    "capital": "admin", 
    "population": "7964000", 
    "population_proper": "8294000"
  }, 
  {
    "city": "Shangqiu", 
    "lat": "34.4150", 
    "lng": "115.6560", 
    "country": "China", 
    "iso2": "CN", 
    "admin_name": "Henan", 
    "capital": "", 
    "population": "7816831", 
    "population_proper": "7816831"
  }, 
  {
    "city": "Cangzhou", 
    "lat": "38.3047", 
    "lng": "116.8387", 
    "country": "China", 
    "iso2": "CN", 
    "admin_name": "Hebei", 
    "capital": "minor", 
    "population": "7300783", 
    "population_proper": "7300783"
  }, 
  {
    "city": "Xingtai", 
    "lat": "37.0717", 
    "lng": "114.5048", 
    "country": "China", 
    "iso2": "CN", 
    "admin_name": "Hebei", 
    "capital": "", 
    "population": "7111106", 
    "population_proper": "7111106"
  }, 
  {
    "city": "Zhumadian", 
    "lat": "33.0140", 
    "lng": "114.0220", 
    "country": "China", 
    "iso2": "CN", 
    "admin_name": "Henan", 
    "capital": "", 
    "population": "7008427", 
    "population_proper": "7008427"
  }, 
  {
    "city": "Zhanjiang", 
    "lat": "21.2701", 
    "lng": "110.3575", 
    "country": "China", 
    "iso2": "CN", 
    "admin_name": "Guangdong", 
    "capital": "minor", 
    "population": "6981236", 
    "population_proper": "6981236"
  }, 
  {
    "city": "Bijie", 
    "lat": "27.2840", 
    "lng": "105.2920", 
    "country": "China", 
    "iso2": "CN", 
    "admin_name": "Guizhou", 
    "capital": "", 
    "population": "6899636", 
    "population_proper": "6899636"
  }, 
  {
    "city": "Yancheng", 
    "lat": "33.3482", 
    "lng": "120.1626", 
    "country": "China", 
    "iso2": "CN", 
    "admin_name": "Jiangsu", 
    "capital": "minor", 
    "population": "6709629", 
    "population_proper": "6709629"
  }, 
  {
    "city": "Hengyang", 
    "lat": "26.8940", 
    "lng": "112.5720", 
    "country": "China", 
    "iso2": "CN", 
    "admin_name": "Hunan", 
    "capital": "", 
    "population": "6645243", 
    "population_proper": "6645243"
  }, 
  {
    "city": "Zunyi", 
    "lat": "27.7220", 
    "lng": "107.0310", 
    "country": "China", 
    "iso2": "CN", 
    "admin_name": "Guizhou", 
    "capital": "", 
    "population": "6606675", 
    "population_proper": "6606675"
  }, 
  {
    "city": "Shaoyang", 
    "lat": "27.2395", 
    "lng": "111.4679", 
    "country": "China", 
    "iso2": "CN", 
    "admin_name": "Hunan", 
    "capital": "", 
    "population": "6563520", 
    "population_proper": "6563520"
  }, 
  {
    "city": "Shangrao", 
    "lat": "28.4551", 
    "lng": "117.9431", 
    "country": "China", 
    "iso2": "CN", 
    "admin_name": "Jiangxi", 
    "capital": "minor", 
    "population": "6435300", 
    "population_proper": "6435300"
  }, 
  {
    "city": "Xinyang", 
    "lat": "32.1490", 
    "lng": "114.0910", 
    "country": "China", 
    "iso2": "CN", 
    "admin_name": "Henan", 
    "capital": "", 
    "population": "6234401", 
    "population_proper": "6234401"
  }, 
  {
    "city": "Maoming", 
    "lat": "21.6627", 
    "lng": "110.9255", 
    "country": "China", 
    "iso2": "CN", 
    "admin_name": "Guangdong", 
    "capital": "minor", 
    "population": "6174050", 
    "population_proper": "6174050"
  }, 
  {
    "city": "Jieyang", 
    "lat": "23.5510", 
    "lng": "116.3727", 
    "country": "China", 
    "iso2": "CN", 
    "admin_name": "Guangdong", 
    "capital": "minor", 
    "population": "6089400", 
    "population_proper": "6089400"
  }, 
  {
    "city": "Liaocheng", 
    "lat": "36.4559", 
    "lng": "115.9852", 
    "country": "China", 
    "iso2": "CN", 
    "admin_name": "Shandong", 
    "capital": "minor", 
    "population": "5952128", 
    "population_proper": "5952128"
  }, 
  {
    "city": "Huanggang", 
    "lat": "30.4537", 
    "lng": "114.8724", 
    "country": "China", 
    "iso2": "CN", 
    "admin_name": "Hubei", 
    "capital": "minor", 
    "population": "5882719", 
    "population_proper": "5882719"
  }, 
  {
    "city": "Dalian", 
    "lat": "38.9000", 
    "lng": "121.6000", 
    "country": "China", 
    "iso2": "CN", 
    "admin_name": "Liaoning", 
    "capital": "", 
    "population": "5871474", 
    "population_proper": "5871475"
  }, 
  {
    "city": "Qingdao", 
    "lat": "36.0669", 
    "lng": "120.3827", 
    "country": "China", 
    "iso2": "CN", 
    "admin_name": "Shandong", 
    "capital": "minor", 
    "population": "5818255", 
    "population_proper": "5818256"
  }, 
  {
    "city": "Yulin", 
    "lat": "22.6540", 
    "lng": "110.1810", 
    "country": "China", 
    "iso2": "CN", 
    "admin_name": "Guangxi", 
    "capital": "minor", 
    "population": "5796766", 
    "population_proper": "5796766"
  }, 
  {
    "city": "Qujing", 
    "lat": "25.4910", 
    "lng": "103.7960", 
    "country": "China", 
    "iso2": "CN", 
    "admin_name": "Yunnan", 
    "capital": "", 
    "population": "5765775", 
    "population_proper": "5765775"
  }, 
  {
    "city": "Nangandao", 
    "lat": "35.3036", 
    "lng": "113.9268", 
    "country": "China", 
    "iso2": "CN", 
    "admin_name": "Henan", 
    "capital": "minor", 
    "population": "5708191", 
    "population_proper": "5708191"
  }, 
  {
    "city": "Pudong", 
    "lat": "31.2347", 
    "lng": "121.5064", 
    "country": "China", 
    "iso2": "CN", 
    "admin_name": "Shanghai", 
    "capital": "minor", 
    "population": "5681512", 
    "population_proper": "5681512"
  }, 
  {
    "city": "Zhengzhou", 
    "lat": "34.7640", 
    "lng": "113.6840", 
    "country": "China", 
    "iso2": "CN", 
    "admin_name": "Henan", 
    "capital": "admin", 
    "population": "5621593", 
    "population_proper": "5621594"
  }, 
  {
    "city": "Dezhou", 
    "lat": "37.4360", 
    "lng": "116.3590", 
    "country": "China", 
    "iso2": "CN", 
    "admin_name": "Shandong", 
    "capital": "minor", 
    "population": "5611194", 
    "population_proper": "5611194"
  }, 
  {
    "city": "Nanchong", 
    "lat": "30.8372", 
    "lng": "106.1106", 
    "country": "China", 
    "iso2": "CN", 
    "admin_name": "Sichuan", 
    "capital": "minor", 
    "population": "5607565", 
    "population_proper": "5607565"
  }, 
  {
    "city": "Jinan", 
    "lat": "36.6702", 
    "lng": "117.0207", 
    "country": "China", 
    "iso2": "CN", 
    "admin_name": "Shandong", 
    "capital": "admin", 
    "population": "5606374", 
    "population_proper": "5606375"
  }, 
  {
    "city": "Tai’an", 
    "lat": "36.2020", 
    "lng": "117.0870", 
    "country": "China", 
    "iso2": "CN", 
    "admin_name": "Shandong", 
    "capital": "", 
    "population": "5472217", 
    "population_proper": "5472217"
  }, 
  {
    "city": "Langfang", 
    "lat": "39.5383", 
    "lng": "116.6835", 
    "country": "China", 
    "iso2": "CN", 
    "admin_name": "Hebei", 
    "capital": "minor", 
    "population": "5464087", 
    "population_proper": "5464087"
  }, 
  {
    "city": "Dazhou", 
    "lat": "31.2093", 
    "lng": "107.4678", 
    "country": "China", 
    "iso2": "CN", 
    "admin_name": "Sichuan", 
    "capital": "minor", 
    "population": "5385422", 
    "population_proper": "5385422"
  }, 
  {
    "city": "Suzhou", 
    "lat": "33.6333", 
    "lng": "116.9683", 
    "country": "China", 
    "iso2": "CN", 
    "admin_name": "Anhui", 
    "capital": "", 
    "population": "5324476", 
    "population_proper": "5324476"
  }, 
  {
    "city": "Yongzhou", 
    "lat": "26.4200", 
    "lng": "111.6130", 
    "country": "China", 
    "iso2": "CN", 
    "admin_name": "Hunan", 
    "capital": "", 
    "population": "5289824", 
    "population_proper": "5289824"
  }, 
  {
    "city": "Changde", 
    "lat": "29.0310", 
    "lng": "111.6990", 
    "country": "China", 
    "iso2": "CN", 
    "admin_name": "Hunan", 
    "capital": "minor", 
    "population": "5279102", 
    "population_proper": "5279102"
  }, 
  {
    "city": "Xiangyang", 
    "lat": "32.0100", 
    "lng": "112.1220", 
    "country": "China", 
    "iso2": "CN", 
    "admin_name": "Hubei", 
    "capital": "minor", 
    "population": "5260951", 
    "population_proper": "5260951"
  }, 
  {
    "city": "Zhaotong", 
    "lat": "27.3380", 
    "lng": "103.7170", 
    "country": "China", 
    "iso2": "CN", 
    "admin_name": "Yunnan", 
    "capital": "", 
    "population": "5092611", 
    "population_proper": "5092611"
  }, 
  {
    "city": "Zhangzhou", 
    "lat": "24.5130", 
    "lng": "117.6470", 
    "country": "China", 
    "iso2": "CN", 
    "admin_name": "Fujian", 
    "capital": "minor", 
    "population": "5054328", 
    "population_proper": "5054328"
  }, 
  {
    "city": "Yichun", 
    "lat": "27.8160", 
    "lng": "114.4170", 
    "country": "China", 
    "iso2": "CN", 
    "admin_name": "Jiangxi", 
    "capital": "minor", 
    "population": "5007702", 
    "population_proper": "5007702"
  }, 
  {
    "city": "Bozhou", 
    "lat": "33.8626", 
    "lng": "115.7742", 
    "country": "China", 
    "iso2": "CN", 
    "admin_name": "Anhui", 
    "capital": "", 
    "population": "4996844", 
    "population_proper": "4996844"
  }, 
  {
    "city": "Suqian", 
    "lat": "33.9331", 
    "lng": "118.2831", 
    "country": "China", 
    "iso2": "CN", 
    "admin_name": "Jiangsu", 
    "capital": "", 
    "population": "4986192", 
    "population_proper": "4986192"
  }, 
  {
    "city": "Ji’an", 
    "lat": "27.0912", 
    "lng": "114.9668", 
    "country": "China", 
    "iso2": "CN", 
    "admin_name": "Jiangxi", 
    "capital": "minor", 
    "population": "4956600", 
    "population_proper": "4956600"
  }, 
  {
    "city": "Guilin", 
    "lat": "25.2750", 
    "lng": "110.2960", 
    "country": "China", 
    "iso2": "CN", 
    "admin_name": "Guangxi", 
    "capital": "minor", 
    "population": "4931137", 
    "population_proper": "4931137"
  }, 
  {
    "city": "Pingdingshan", 
    "lat": "33.7350", 
    "lng": "113.2999", 
    "country": "China", 
    "iso2": "CN", 
    "admin_name": "Henan", 
    "capital": "", 
    "population": "4904701", 
    "population_proper": "4904701"
  }, 
  {
    "city": "Mianyang", 
    "lat": "31.4680", 
    "lng": "104.6790", 
    "country": "China", 
    "iso2": "CN", 
    "admin_name": "Sichuan", 
    "capital": "minor", 
    "population": "4868243", 
    "population_proper": "4868243"
  }, 
  {
    "city": "Huanglongsi", 
    "lat": "34.7950", 
    "lng": "114.3450", 
    "country": "China", 
    "iso2": "CN", 
    "admin_name": "Henan", 
    "capital": "", 
    "population": "4824016", 
    "population_proper": "4824016"
  }, 
  {
    "city": "Yuncheng", 
    "lat": "35.0267", 
    "lng": "111.0070", 
    "country": "China", 
    "iso2": "CN", 
    "admin_name": "Shanxi", 
    "capital": "", 
    "population": "4774508", 
    "population_proper": "4774508"
  }, 
  {
    "city": "Changsha", 
    "lat": "28.2280", 
    "lng": "112.9390", 
    "country": "China", 
    "iso2": "CN", 
    "admin_name": "Hunan", 
    "capital": "admin", 
    "population": "4766296", 
    "population_proper": "4766297"
  }, 
  {
    "city": "Weinan", 
    "lat": "34.5206", 
    "lng": "109.4710", 
    "country": "China", 
    "iso2": "CN", 
    "admin_name": "Shaanxi", 
    "capital": "minor", 
    "population": "4688744", 
    "population_proper": "4688744"
  }, 
  {
    "city": "Chenzhou", 
    "lat": "25.7700", 
    "lng": "113.0160", 
    "country": "China", 
    "iso2": "CN", 
    "admin_name": "Hunan", 
    "capital": "minor", 
    "population": "4667134", 
    "population_proper": "4667134"
  }, 
  {
    "city": "Jiangmen", 
    "lat": "22.5789", 
    "lng": "113.0815", 
    "country": "China", 
    "iso2": "CN", 
    "admin_name": "Guangdong", 
    "capital": "minor", 
    "population": "4630300", 
    "population_proper": "4630300"
  }, 
  {
    "city": "Jiujiang", 
    "lat": "29.6610", 
    "lng": "115.9540", 
    "country": "China", 
    "iso2": "CN", 
    "admin_name": "Jiangxi", 
    "capital": "minor", 
    "population": "4600276", 
    "population_proper": "4600276"
  }, 
  {
    "city": "Xinpu", 
    "lat": "34.5966", 
    "lng": "119.2214", 
    "country": "China", 
    "iso2": "CN", 
    "admin_name": "Jiangsu", 
    "capital": "minor", 
    "population": "4599360", 
    "population_proper": "4599360"
  }, 
  {
    "city": "Yibin", 
    "lat": "28.7520", 
    "lng": "104.6430", 
    "country": "China", 
    "iso2": "CN", 
    "admin_name": "Sichuan", 
    "capital": "minor", 
    "population": "4588804", 
    "population_proper": "4588804"
  }, 
  {
    "city": "Huaihua", 
    "lat": "27.5698", 
    "lng": "110.0016", 
    "country": "China", 
    "iso2": "CN", 
    "admin_name": "Hunan", 
    "capital": "", 
    "population": "4587594", 
    "population_proper": "4587594"
  }, 
  {
    "city": "Yangzhou", 
    "lat": "32.3912", 
    "lng": "119.4363", 
    "country": "China", 
    "iso2": "CN", 
    "admin_name": "Jiangsu", 
    "capital": "", 
    "population": "4559797", 
    "population_proper": "4559797"
  }, 
  {
    "city": "Taizhou", 
    "lat": "32.4567", 
    "lng": "119.9229", 
    "country": "China", 
    "iso2": "CN", 
    "admin_name": "Jiangsu", 
    "capital": "minor", 
    "population": "4512762", 
    "population_proper": "4512762"
  }, 
  {
    "city": "Kunming", 
    "lat": "25.0464", 
    "lng": "102.7094", 
    "country": "China", 
    "iso2": "CN", 
    "admin_name": "Yunnan", 
    "capital": "admin", 
    "population": "4422686", 
    "population_proper": "4422687"
  }, 
  {
    "city": "Yiyang", 
    "lat": "28.5549", 
    "lng": "112.3560", 
    "country": "China", 
    "iso2": "CN", 
    "admin_name": "Hunan", 
    "capital": "", 
    "population": "4413800", 
    "population_proper": "4413800"
  }, 
  {
    "city": "Changchun", 
    "lat": "43.8970", 
    "lng": "125.3260", 
    "country": "China", 
    "iso2": "CN", 
    "admin_name": "Jilin", 
    "capital": "admin", 
    "population": "4408154", 
    "population_proper": "4408155"
  }, 
  {
    "city": "Lu’an", 
    "lat": "31.7360", 
    "lng": "116.5200", 
    "country": "China", 
    "iso2": "CN", 
    "admin_name": "Anhui", 
    "capital": "minor", 
    "population": "4393699", 
    "population_proper": "4393699"
  }, 
  {
    "city": "Jiangguanchi", 
    "lat": "34.0244", 
    "lng": "113.8201", 
    "country": "China", 
    "iso2": "CN", 
    "admin_name": "Henan", 
    "capital": "minor", 
    "population": "4379998", 
    "population_proper": "4379998"
  }, 
  {
    "city": "Meizhou", 
    "lat": "24.2890", 
    "lng": "116.1220", 
    "country": "China", 
    "iso2": "CN", 
    "admin_name": "Guangdong", 
    "capital": "minor", 
    "population": "4378800", 
    "population_proper": "4378800"
  }, 
  {
    "city": "Ürümqi", 
    "lat": "43.8225", 
    "lng": "87.6125", 
    "country": "China", 
    "iso2": "CN", 
    "admin_name": "Xinjiang", 
    "capital": "admin", 
    "population": "4335017", 
    "population_proper": "4335018"
  }, 
  {
    "city": "Suzhou", 
    "lat": "31.3000", 
    "lng": "120.6194", 
    "country": "China", 
    "iso2": "CN", 
    "admin_name": "Jiangsu", 
    "capital": "minor", 
    "population": "4330000", 
    "population_proper": "4330001"
  }, 
  {
    "city": "Guigang", 
    "lat": "23.1120", 
    "lng": "109.5990", 
    "country": "China", 
    "iso2": "CN", 
    "admin_name": "Guangxi", 
    "capital": "minor", 
    "population": "4316262", 
    "population_proper": "4316262"
  }, 
  {
    "city": "Shantou", 
    "lat": "23.3540", 
    "lng": "116.6820", 
    "country": "China", 
    "iso2": "CN", 
    "admin_name": "Guangdong", 
    "capital": "minor", 
    "population": "4312192", 
    "population_proper": "4312193"
  }, 
  {
    "city": "Xiaoganzhan", 
    "lat": "30.9180", 
    "lng": "113.9570", 
    "country": "China", 
    "iso2": "CN", 
    "admin_name": "Hubei", 
    "capital": "", 
    "population": "4270371", 
    "population_proper": "4270371"
  }, 
  {
    "city": "Luzhou", 
    "lat": "28.8710", 
    "lng": "105.4420", 
    "country": "China", 
    "iso2": "CN", 
    "admin_name": "Sichuan", 
    "capital": "minor", 
    "population": "4218427", 
    "population_proper": "4218427"
  }, 
  {
    "city": "Hefei", 
    "lat": "31.8206", 
    "lng": "117.2273", 
    "country": "China", 
    "iso2": "CN", 
    "admin_name": "Anhui", 
    "capital": "admin", 
    "population": "4216940", 
    "population_proper": "4216941"
  }, 
  {
    "city": "Hengshui", 
    "lat": "37.7390", 
    "lng": "115.6690", 
    "country": "China", 
    "iso2": "CN", 
    "admin_name": "Hebei", 
    "capital": "minor", 
    "population": "4212933", 
    "population_proper": "4212933"
  }, 
  {
    "city": "Anqing", 
    "lat": "30.5318", 
    "lng": "117.1153", 
    "country": "China", 
    "iso2": "CN", 
    "admin_name": "Anhui", 
    "capital": "minor", 
    "population": "4165284", 
    "population_proper": "4165284"
  }, 
  {
    "city": "Liuzhou", 
    "lat": "24.3264", 
    "lng": "109.4281", 
    "country": "China", 
    "iso2": "CN", 
    "admin_name": "Guangxi", 
    "capital": "minor", 
    "population": "4157934", 
    "population_proper": "4157934"
  }, 
  {
    "city": "Zhangjiakou", 
    "lat": "40.7690", 
    "lng": "114.8860", 
    "country": "China", 
    "iso2": "CN", 
    "admin_name": "Hebei", 
    "capital": "minor", 
    "population": "4118908", 
    "population_proper": "4118908"
  }, 
  {
    "city": "Zhaoqing", 
    "lat": "23.0500", 
    "lng": "112.4667", 
    "country": "China", 
    "iso2": "CN", 
    "admin_name": "Guangdong", 
    "capital": "minor", 
    "population": "4113594", 
    "population_proper": "4113594"
  }, 
  {
    "city": "Shijiazhuang", 
    "lat": "38.0425", 
    "lng": "114.5100", 
    "country": "China", 
    "iso2": "CN", 
    "admin_name": "Hebei", 
    "capital": "admin", 
    "population": "4098243", 
    "population_proper": "4098244"
  }, 
  {
    "city": "Ningbo", 
    "lat": "29.8603", 
    "lng": "121.6245", 
    "country": "China", 
    "iso2": "CN", 
    "admin_name": "Zhejiang", 
    "capital": "minor", 
    "population": "4087523", 
    "population_proper": "4087524"
  }, 
  {
    "city": "Qiqihar", 
    "lat": "47.3549", 
    "lng": "123.9182", 
    "country": "China", 
    "iso2": "CN", 
    "admin_name": "Heilongjiang", 
    "capital": "minor", 
    "population": "4067489", 
    "population_proper": "4067489"
  }, 
  {
    "city": "Fuzhou", 
    "lat": "27.9490", 
    "lng": "116.3580", 
    "country": "China", 
    "iso2": "CN", 
    "admin_name": "Jiangxi", 
    "capital": "", 
    "population": "4047200", 
    "population_proper": "4047200"
  }, 
  {
    "city": "Chifeng", 
    "lat": "42.2570", 
    "lng": "118.8880", 
    "country": "China", 
    "iso2": "CN", 
    "admin_name": "Inner Mongolia", 
    "capital": "minor", 
    "population": "4035967", 
    "population_proper": "4035967"
  }, 
  {
    "city": "Xiaoxita", 
    "lat": "30.6920", 
    "lng": "111.2870", 
    "country": "China", 
    "iso2": "CN", 
    "admin_name": "Hubei", 
    "capital": "minor", 
    "population": "4017607", 
    "population_proper": "4017607"
  }, 
  {
    "city": "Chuzhou", 
    "lat": "32.2560", 
    "lng": "118.3330", 
    "country": "China", 
    "iso2": "CN", 
    "admin_name": "Anhui", 
    "capital": "", 
    "population": "3987054", 
    "population_proper": "3987054"
  }, 
  {
    "city": "Linfen", 
    "lat": "36.0880", 
    "lng": "111.5190", 
    "country": "China", 
    "iso2": "CN", 
    "admin_name": "Shanxi", 
    "capital": "", 
    "population": "3976481", 
    "population_proper": "3976481"
  }, 
  {
    "city": "Qingyuan", 
    "lat": "23.6820", 
    "lng": "113.0560", 
    "country": "China", 
    "iso2": "CN", 
    "admin_name": "Guangdong", 
    "capital": "minor", 
    "population": "3969473", 
    "population_proper": "3969473"
  }, 
  {
    "city": "Xianyang", 
    "lat": "34.3299", 
    "lng": "108.7088", 
    "country": "China", 
    "iso2": "CN", 
    "admin_name": "Shaanxi", 
    "capital": "minor", 
    "population": "3959842", 
    "population_proper": "3959842"
  }, 
  {
    "city": "Loudi", 
    "lat": "27.6998", 
    "lng": "111.9944", 
    "country": "China", 
    "iso2": "CN", 
    "admin_name": "Hunan", 
    "capital": "", 
    "population": "3931800", 
    "population_proper": "3931800"
  }, 
  {
    "city": "Binzhou", 
    "lat": "37.3830", 
    "lng": "117.9710", 
    "country": "China", 
    "iso2": "CN", 
    "admin_name": "Shandong", 
    "capital": "", 
    "population": "3928568", 
    "population_proper": "3928568"
  }, 
  {
    "city": "Zhuzhou", 
    "lat": "27.8290", 
    "lng": "113.1330", 
    "country": "China", 
    "iso2": "CN", 
    "admin_name": "Hunan", 
    "capital": "minor", 
    "population": "3902738", 
    "population_proper": "3902738"
  }, 
  {
    "city": "Taiyuan", 
    "lat": "37.8704", 
    "lng": "112.5497", 
    "country": "China", 
    "iso2": "CN", 
    "admin_name": "Shanxi", 
    "capital": "admin", 
    "population": "3875053", 
    "population_proper": "3875054"
  }, 
  {
    "city": "Nanning", 
    "lat": "22.8167", 
    "lng": "108.3275", 
    "country": "China", 
    "iso2": "CN", 
    "admin_name": "Guangxi", 
    "capital": "admin", 
    "population": "3837978", 
    "population_proper": "3837979"
  }, 
  {
    "city": "Harbin", 
    "lat": "45.7576", 
    "lng": "126.6409", 
    "country": "China", 
    "iso2": "CN", 
    "admin_name": "Heilongjiang", 
    "capital": "admin", 
    "population": "3830000", 
    "population_proper": "10635971"
  }, 
  {
    "city": "Suihua", 
    "lat": "46.6540", 
    "lng": "126.9690", 
    "country": "China", 
    "iso2": "CN", 
    "admin_name": "Heilongjiang", 
    "capital": "minor", 
    "population": "3756167", 
    "population_proper": "3756167"
  }, 
  {
    "city": "Zaozhuang", 
    "lat": "34.8109", 
    "lng": "117.3238", 
    "country": "China", 
    "iso2": "CN", 
    "admin_name": "Shandong", 
    "capital": "", 
    "population": "3729140", 
    "population_proper": "3729140"
  }, 
  {
    "city": "Xiamen", 
    "lat": "24.4796", 
    "lng": "118.0889", 
    "country": "China", 
    "iso2": "CN", 
    "admin_name": "Fujian", 
    "capital": "minor", 
    "population": "3707090", 
    "population_proper": "3707091"
  }, 
  {
    "city": "Neijiang", 
    "lat": "29.5802", 
    "lng": "105.0580", 
    "country": "China", 
    "iso2": "CN", 
    "admin_name": "Sichuan", 
    "capital": "minor", 
    "population": "3702847", 
    "population_proper": "3702847"
  }, 
  {
    "city": "Fuzhou", 
    "lat": "26.0743", 
    "lng": "119.2964", 
    "country": "China", 
    "iso2": "CN", 
    "admin_name": "Fujian", 
    "capital": "admin", 
    "population": "3671192", 
    "population_proper": "3671193"
  }, 
  {
    "city": "Baicheng", 
    "lat": "23.9030", 
    "lng": "106.6190", 
    "country": "China", 
    "iso2": "CN", 
    "admin_name": "Guangxi", 
    "capital": "minor", 
    "population": "3669400", 
    "population_proper": "3669400"
  }, 
  {
    "city": "Wuhu", 
    "lat": "31.3526", 
    "lng": "118.4331", 
    "country": "China", 
    "iso2": "CN", 
    "admin_name": "Anhui", 
    "capital": "minor", 
    "population": "3644420", 
    "population_proper": "3644420"
  }, 
  {
    "city": "Yulinshi", 
    "lat": "38.2858", 
    "lng": "109.7341", 
    "country": "China", 
    "iso2": "CN", 
    "admin_name": "Shaanxi", 
    "capital": "", 
    "population": "3634750", 
    "population_proper": "3634750"
  }, 
  {
    "city": "Wenzhou", 
    "lat": "27.9938", 
    "lng": "120.6993", 
    "country": "China", 
    "iso2": "CN", 
    "admin_name": "Zhejiang", 
    "capital": "", 
    "population": "3604446", 
    "population_proper": "3604447"
  }, 
  {
    "city": "Changzhou", 
    "lat": "31.8110", 
    "lng": "119.9740", 
    "country": "China", 
    "iso2": "CN", 
    "admin_name": "Jiangsu", 
    "capital": "minor", 
    "population": "3601079", 
    "population_proper": "3601080"
  }, 
  {
    "city": "Puyang", 
    "lat": "35.7627", 
    "lng": "115.0292", 
    "country": "China", 
    "iso2": "CN", 
    "admin_name": "Henan", 
    "capital": "minor", 
    "population": "3598740", 
    "population_proper": "3598740"
  }, 
  {
    "city": "Jiaozuo", 
    "lat": "35.2157", 
    "lng": "113.2419", 
    "country": "China", 
    "iso2": "CN", 
    "admin_name": "Henan", 
    "capital": "", 
    "population": "3590700", 
    "population_proper": "3590700"
  }, 
  {
    "city": "Nanchang", 
    "lat": "28.6830", 
    "lng": "115.8580", 
    "country": "China", 
    "iso2": "CN", 
    "admin_name": "Jiangxi", 
    "capital": "admin", 
    "population": "3576547", 
    "population_proper": "3576548"
  }, 
  {
    "city": "Deyang", 
    "lat": "31.1270", 
    "lng": "104.3980", 
    "country": "China", 
    "iso2": "CN", 
    "admin_name": "Sichuan", 
    "capital": "minor", 
    "population": "3456161", 
    "population_proper": "3456161"
  }, 
  {
    "city": "Hohhot", 
    "lat": "40.8420", 
    "lng": "111.7490", 
    "country": "China", 
    "iso2": "CN", 
    "admin_name": "Inner Mongolia", 
    "capital": "admin", 
    "population": "3446100", 
    "population_proper": "3446100"
  }, 
  {
    "city": "Hechi", 
    "lat": "24.6930", 
    "lng": "108.0850", 
    "country": "China", 
    "iso2": "CN", 
    "admin_name": "Guangxi", 
    "capital": "minor", 
    "population": "3417945", 
    "population_proper": "3417945"
  }, 
  {
    "city": "Tangshan", 
    "lat": "39.6294", 
    "lng": "118.1739", 
    "country": "China", 
    "iso2": "CN", 
    "admin_name": "Hebei", 
    "capital": "", 
    "population": "3399231", 
    "population_proper": "3399232"
  }, 
  {
    "city": "Shiyan", 
    "lat": "32.6290", 
    "lng": "110.7987", 
    "country": "China", 
    "iso2": "CN", 
    "admin_name": "Hubei", 
    "capital": "minor", 
    "population": "3398000", 
    "population_proper": "3398000"
  }, 
  {
    "city": "Anshan", 
    "lat": "41.1080", 
    "lng": "122.9940", 
    "country": "China", 
    "iso2": "CN", 
    "admin_name": "Liaoning", 
    "capital": "", 
    "population": "3325372", 
    "population_proper": "3325372"
  }, 
  {
    "city": "Baojishi", 
    "lat": "34.3630", 
    "lng": "107.2380", 
    "country": "China", 
    "iso2": "CN", 
    "admin_name": "Shaanxi", 
    "capital": "", 
    "population": "3321853", 
    "population_proper": "3321853"
  }, 
  {
    "city": "Qinzhou", 
    "lat": "21.9810", 
    "lng": "108.6540", 
    "country": "China", 
    "iso2": "CN", 
    "admin_name": "Guangxi", 
    "capital": "minor", 
    "population": "3304400", 
    "population_proper": "3304400"
  }, 
  {
    "city": "Guiyang", 
    "lat": "26.6470", 
    "lng": "106.6300", 
    "country": "China", 
    "iso2": "CN", 
    "admin_name": "Guizhou", 
    "capital": "admin", 
    "population": "3299724", 
    "population_proper": "3299725"
  }, 
  {
    "city": "Bengbu", 
    "lat": "32.9170", 
    "lng": "117.3890", 
    "country": "China", 
    "iso2": "CN", 
    "admin_name": "Anhui", 
    "capital": "", 
    "population": "3296408", 
    "population_proper": "3296408"
  }, 
  {
    "city": "Bazhou", 
    "lat": "31.8680", 
    "lng": "106.7480", 
    "country": "China", 
    "iso2": "CN", 
    "admin_name": "Sichuan", 
    "capital": "minor", 
    "population": "3283148", 
    "population_proper": "3283148"
  }, 
  {
    "city": "Suining", 
    "lat": "30.5330", 
    "lng": "105.5930", 
    "country": "China", 
    "iso2": "CN", 
    "admin_name": "Sichuan", 
    "capital": "minor", 
    "population": "3252619", 
    "population_proper": "3252619"
  }, 
  {
    "city": "Wuxi", 
    "lat": "31.4910", 
    "lng": "120.3120", 
    "country": "China", 
    "iso2": "CN", 
    "admin_name": "Jiangsu", 
    "capital": "minor", 
    "population": "3245179", 
    "population_proper": "3245180"
  }, 
  {
    "city": "Hanzhong", 
    "lat": "33.0664", 
    "lng": "107.0232", 
    "country": "China", 
    "iso2": "CN", 
    "admin_name": "Shaanxi", 
    "capital": "", 
    "population": "3211462", 
    "population_proper": "3211462"
  }, 
  {
    "city": "Putian", 
    "lat": "25.4526", 
    "lng": "119.0078", 
    "country": "China", 
    "iso2": "CN", 
    "admin_name": "Fujian", 
    "capital": "minor", 
    "population": "3210714", 
    "population_proper": "3210714"
  }, 
  {
    "city": "Zhenjiang", 
    "lat": "32.1880", 
    "lng": "119.4240", 
    "country": "China", 
    "iso2": "CN", 
    "admin_name": "Jiangsu", 
    "capital": "minor", 
    "population": "3210418", 
    "population_proper": "3210418"
  }, 
  {
    "city": "Guang’an", 
    "lat": "30.4564", 
    "lng": "106.6326", 
    "country": "China", 
    "iso2": "CN", 
    "admin_name": "Sichuan", 
    "capital": "minor", 
    "population": "3205476", 
    "population_proper": "3205476"
  }, 
  {
    "city": "Changzhi", 
    "lat": "36.1950", 
    "lng": "113.1170", 
    "country": "China", 
    "iso2": "CN", 
    "admin_name": "Shanxi", 
    "capital": "minor", 
    "population": "3180884", 
    "population_proper": "3180884"
  }, 
  {
    "city": "Tongren", 
    "lat": "27.7316", 
    "lng": "109.1895", 
    "country": "China", 
    "iso2": "CN", 
    "admin_name": "Guizhou", 
    "capital": "", 
    "population": "3168800", 
    "population_proper": "3168800"
  }, 
  {
    "city": "Leshan", 
    "lat": "29.5520", 
    "lng": "103.7660", 
    "country": "China", 
    "iso2": "CN", 
    "admin_name": "Sichuan", 
    "capital": "", 
    "population": "3160168", 
    "population_proper": "3160168"
  }, 
  {
    "city": "Qinhuangdao", 
    "lat": "39.8882", 
    "lng": "119.5202", 
    "country": "China", 
    "iso2": "CN", 
    "admin_name": "Hebei", 
    "capital": "", 
    "population": "3146300", 
    "population_proper": "3146300"
  }, 
  {
    "city": "Xinzhou", 
    "lat": "38.4160", 
    "lng": "112.7340", 
    "country": "China", 
    "iso2": "CN", 
    "admin_name": "Shanxi", 
    "capital": "minor", 
    "population": "3067501", 
    "population_proper": "3067501"
  }, 
  {
    "city": "Lanzhou", 
    "lat": "36.0606", 
    "lng": "103.8268", 
    "country": "China", 
    "iso2": "CN", 
    "admin_name": "Gansu", 
    "capital": "admin", 
    "population": "3067141", 
    "population_proper": "3067142"
  }, 
  {
    "city": "Wuzhou", 
    "lat": "23.4767", 
    "lng": "111.2790", 
    "country": "China", 
    "iso2": "CN", 
    "admin_name": "Guangxi", 
    "capital": "minor", 
    "population": "3061100", 
    "population_proper": "3061100"
  }, 
  {
    "city": "Huainan", 
    "lat": "32.6314", 
    "lng": "117.0194", 
    "country": "China", 
    "iso2": "CN", 
    "admin_name": "Anhui", 
    "capital": "", 
    "population": "3033528", 
    "population_proper": "3033528"
  }, 
  {
    "city": "Qincheng", 
    "lat": "34.5809", 
    "lng": "105.7311", 
    "country": "China", 
    "iso2": "CN", 
    "admin_name": "Gansu", 
    "capital": "minor", 
    "population": "2984659", 
    "population_proper": "2984659"
  }, 
  {
    "city": "Rizhao", 
    "lat": "35.4170", 
    "lng": "119.5270", 
    "country": "China", 
    "iso2": "CN", 
    "admin_name": "Shandong", 
    "capital": "minor", 
    "population": "2968365", 
    "population_proper": "2968365"
  }, 
  {
    "city": "Meishan", 
    "lat": "30.0771", 
    "lng": "103.8484", 
    "country": "China", 
    "iso2": "CN", 
    "admin_name": "Sichuan", 
    "capital": "", 
    "population": "2950545", 
    "population_proper": "2950545"
  }, 
  {
    "city": "Ningde", 
    "lat": "26.6662", 
    "lng": "119.5477", 
    "country": "China", 
    "iso2": "CN", 
    "admin_name": "Fujian", 
    "capital": "minor", 
    "population": "2910000", 
    "population_proper": "2910000"
  }, 
  {
    "city": "Zhongshan", 
    "lat": "22.5170", 
    "lng": "113.3925", 
    "country": "China", 
    "iso2": "CN", 
    "admin_name": "Guangdong", 
    "capital": "minor", 
    "population": "2909633", 
    "population_proper": "2909634"
  }, 
  {
    "city": "Weihai", 
    "lat": "37.5133", 
    "lng": "122.1205", 
    "country": "China", 
    "iso2": "CN", 
    "admin_name": "Shandong", 
    "capital": "minor", 
    "population": "2906548", 
    "population_proper": "2906548"
  }, 
  {
    "city": "Haikou", 
    "lat": "20.0186", 
    "lng": "110.3488", 
    "country": "China", 
    "iso2": "CN", 
    "admin_name": "Hainan", 
    "capital": "admin", 
    "population": "2873358", 
    "population_proper": "2873358"
  }, 
  {
    "city": "Tongliao", 
    "lat": "43.6540", 
    "lng": "122.2430", 
    "country": "China", 
    "iso2": "CN", 
    "admin_name": "Inner Mongolia", 
    "capital": "minor", 
    "population": "2873168", 
    "population_proper": "2873168"
  }, 
  {
    "city": "Chaoyang", 
    "lat": "41.5710", 
    "lng": "120.4530", 
    "country": "China", 
    "iso2": "CN", 
    "admin_name": "Liaoning", 
    "capital": "", 
    "population": "2872857", 
    "population_proper": "2872857"
  }, 
  {
    "city": "Shaoguan", 
    "lat": "24.8110", 
    "lng": "113.5970", 
    "country": "China", 
    "iso2": "CN", 
    "admin_name": "Guangdong", 
    "capital": "minor", 
    "population": "2855131", 
    "population_proper": "2855131"
  }, 
  {
    "city": "Heyuan", 
    "lat": "23.7443", 
    "lng": "114.7002", 
    "country": "China", 
    "iso2": "CN", 
    "admin_name": "Guangdong", 
    "capital": "minor", 
    "population": "2837686", 
    "population_proper": "2837686"
  }, 
  {
    "city": "Daqing", 
    "lat": "46.5890", 
    "lng": "125.1040", 
    "country": "China", 
    "iso2": "CN", 
    "admin_name": "Heilongjiang", 
    "capital": "minor", 
    "population": "2781562", 
    "population_proper": "2781562"
  }, 
  {
    "city": "Xiangtan", 
    "lat": "27.8313", 
    "lng": "112.9454", 
    "country": "China", 
    "iso2": "CN", 
    "admin_name": "Hunan", 
    "capital": "", 
    "population": "2726181", 
    "population_proper": "2726181"
  }, 
  {
    "city": "Longyan", 
    "lat": "25.0760", 
    "lng": "117.0170", 
    "country": "China", 
    "iso2": "CN", 
    "admin_name": "Fujian", 
    "capital": "minor", 
    "population": "2723637", 
    "population_proper": "2723637"
  }, 
  {
    "city": "Baotou", 
    "lat": "40.6213", 
    "lng": "109.9532", 
    "country": "China", 
    "iso2": "CN", 
    "admin_name": "Inner Mongolia", 
    "capital": "", 
    "population": "2709378", 
    "population_proper": "2709378"
  }, 
  {
    "city": "Handan", 
    "lat": "36.6010", 
    "lng": "114.4870", 
    "country": "China", 
    "iso2": "CN", 
    "admin_name": "Hebei", 
    "capital": "minor", 
    "population": "2708015", 
    "population_proper": "2708016"
  }, 
  {
    "city": "Jinzhou", 
    "lat": "41.1290", 
    "lng": "121.1480", 
    "country": "China", 
    "iso2": "CN", 
    "admin_name": "Liaoning", 
    "capital": "", 
    "population": "2703853", 
    "population_proper": "2703853"
  }, 
  {
    "city": "Nanping", 
    "lat": "26.6418", 
    "lng": "118.1774", 
    "country": "China", 
    "iso2": "CN", 
    "admin_name": "Fujian", 
    "capital": "minor", 
    "population": "2680645", 
    "population_proper": "2680645"
  }, 
  {
    "city": "Shanwei", 
    "lat": "22.7872", 
    "lng": "115.3756", 
    "country": "China", 
    "iso2": "CN", 
    "admin_name": "Guangdong", 
    "capital": "minor", 
    "population": "2672819", 
    "population_proper": "2672819"
  }, 
  {
    "city": "Chaozhou", 
    "lat": "23.6580", 
    "lng": "116.6220", 
    "country": "China", 
    "iso2": "CN", 
    "admin_name": "Guangdong", 
    "capital": "minor", 
    "population": "2656600", 
    "population_proper": "2656600"
  }, 
  {
    "city": "Weifang", 
    "lat": "36.7080", 
    "lng": "119.1620", 
    "country": "China", 
    "iso2": "CN", 
    "admin_name": "Shandong", 
    "capital": "", 
    "population": "2636154", 
    "population_proper": "2636155"
  }, 
  {
    "city": "Huai’an", 
    "lat": "33.5510", 
    "lng": "119.1130", 
    "country": "China", 
    "iso2": "CN", 
    "admin_name": "Jiangsu", 
    "capital": "", 
    "population": "2632788", 
    "population_proper": "2632789"
  }, 
  {
    "city": "Zibo", 
    "lat": "36.8138", 
    "lng": "118.0550", 
    "country": "China", 
    "iso2": "CN", 
    "admin_name": "Shandong", 
    "capital": "", 
    "population": "2631647", 
    "population_proper": "2631648"
  }, 
  {
    "city": "Ankang", 
    "lat": "32.6854", 
    "lng": "109.0290", 
    "country": "China", 
    "iso2": "CN", 
    "admin_name": "Shaanxi", 
    "capital": "", 
    "population": "2629906", 
    "population_proper": "2629906"
  }, 
  {
    "city": "Gulou", 
    "lat": "26.0865", 
    "lng": "119.2980", 
    "country": "China", 
    "iso2": "CN", 
    "admin_name": "Fujian", 
    "capital": "minor", 
    "population": "2606000", 
    "population_proper": "2606000"
  }, 
  {
    "city": "Sanming", 
    "lat": "26.2634", 
    "lng": "117.6389", 
    "country": "China", 
    "iso2": "CN", 
    "admin_name": "Fujian", 
    "capital": "minor", 
    "population": "2580000", 
    "population_proper": "2580000"
  }, 
  {
    "city": "Yangjiang", 
    "lat": "21.8570", 
    "lng": "111.9830", 
    "country": "China", 
    "iso2": "CN", 
    "admin_name": "Guangdong", 
    "capital": "minor", 
    "population": "2555600", 
    "population_proper": "2555600"
  }, 
  {
    "city": "Jiamusi", 
    "lat": "46.8000", 
    "lng": "130.3190", 
    "country": "China", 
    "iso2": "CN", 
    "admin_name": "Heilongjiang", 
    "capital": "minor", 
    "population": "2552097", 
    "population_proper": "2552097"
  }, 
  {
    "city": "Luohe", 
    "lat": "33.5830", 
    "lng": "114.0109", 
    "country": "China", 
    "iso2": "CN", 
    "admin_name": "Henan", 
    "capital": "minor", 
    "population": "2544266", 
    "population_proper": "2544266"
  }, 
  {
    "city": "Dingxi", 
    "lat": "35.6080", 
    "lng": "104.5920", 
    "country": "China", 
    "iso2": "CN", 
    "admin_name": "Gansu", 
    "capital": "minor", 
    "population": "2524097", 
    "population_proper": "2524097"
  }, 
  {
    "city": "Shaoxing", 
    "lat": "30.0511", 
    "lng": "120.5833", 
    "country": "China", 
    "iso2": "CN", 
    "admin_name": "Zhejiang", 
    "capital": "minor", 
    "population": "2521964", 
    "population_proper": "2521965"
  }, 
  {
    "city": "Yantai", 
    "lat": "37.4646", 
    "lng": "121.4478", 
    "country": "China", 
    "iso2": "CN", 
    "admin_name": "Shandong", 
    "capital": "", 
    "population": "2511053", 
    "population_proper": "2511054"
  }, 
  {
    "city": "Huizhou", 
    "lat": "23.1120", 
    "lng": "114.4160", 
    "country": "China", 
    "iso2": "CN", 
    "admin_name": "Guangdong", 
    "capital": "minor", 
    "population": "2509243", 
    "population_proper": "2509244"
  }, 
  {
    "city": "Lishui", 
    "lat": "28.4680", 
    "lng": "119.9230", 
    "country": "China", 
    "iso2": "CN", 
    "admin_name": "Zhejiang", 
    "capital": "minor", 
    "population": "2507396", 
    "population_proper": "2507396"
  }, 
  {
    "city": "Xuanzhou", 
    "lat": "30.9390", 
    "lng": "118.7590", 
    "country": "China", 
    "iso2": "CN", 
    "admin_name": "Anhui", 
    "capital": "", 
    "population": "2500063", 
    "population_proper": "2500063"
  }, 
  {
    "city": "Zigong", 
    "lat": "29.3390", 
    "lng": "104.7790", 
    "country": "China", 
    "iso2": "CN", 
    "admin_name": "Sichuan", 
    "capital": "", 
    "population": "2489256", 
    "population_proper": "2489256"
  }, 
  {
    "city": "Guangyuan", 
    "lat": "32.4360", 
    "lng": "105.8440", 
    "country": "China", 
    "iso2": "CN", 
    "admin_name": "Sichuan", 
    "capital": "", 
    "population": "2484122", 
    "population_proper": "2484122"
  }, 
  {
    "city": "Huangshi", 
    "lat": "30.2011", 
    "lng": "115.0390", 
    "country": "China", 
    "iso2": "CN", 
    "admin_name": "Hubei", 
    "capital": "minor", 
    "population": "2469079", 
    "population_proper": "2469079"
  }, 
  {
    "city": "Xining", 
    "lat": "36.6224", 
    "lng": "101.7804", 
    "country": "China", 
    "iso2": "CN", 
    "admin_name": "Qinghai", 
    "capital": "admin", 
    "population": "2467965", 
    "population_proper": "2467965"
  }, 
  {
    "city": "Zhuhai", 
    "lat": "22.2716", 
    "lng": "113.5769", 
    "country": "China", 
    "iso2": "CN", 
    "admin_name": "Guangdong", 
    "capital": "minor", 
    "population": "2439585", 
    "population_proper": "2439585"
  }, 
  {
    "city": "Huludao", 
    "lat": "40.7110", 
    "lng": "120.8370", 
    "country": "China", 
    "iso2": "CN", 
    "admin_name": "Liaoning", 
    "capital": "minor", 
    "population": "2434194", 
    "population_proper": "2434194"
  }, 
  {
    "city": "Baoshan", 
    "lat": "25.1120", 
    "lng": "99.1610", 
    "country": "China", 
    "iso2": "CN", 
    "admin_name": "Yunnan", 
    "capital": "", 
    "population": "2431211", 
    "population_proper": "2431211"
  }, 
  {
    "city": "Lianshan", 
    "lat": "40.7523", 
    "lng": "120.8280", 
    "country": "China", 
    "iso2": "CN", 
    "admin_name": "Liaoning", 
    "capital": "minor", 
    "population": "2426000", 
    "population_proper": "2426000"
  }, 
  {
    "city": "Longba", 
    "lat": "33.3702", 
    "lng": "104.9603", 
    "country": "China", 
    "iso2": "CN", 
    "admin_name": "Gansu", 
    "capital": "", 
    "population": "2407272", 
    "population_proper": "2407272"
  }, 
  {
    "city": "Jilin", 
    "lat": "43.8519", 
    "lng": "126.5481", 
    "country": "China", 
    "iso2": "CN", 
    "admin_name": "Jilin", 
    "capital": "", 
    "population": "2396000", 
    "population_proper": "2396000"
  }, 
  {
    "city": "Tieling", 
    "lat": "42.2237", 
    "lng": "123.7260", 
    "country": "China", 
    "iso2": "CN", 
    "admin_name": "Liaoning", 
    "capital": "", 
    "population": "2388294", 
    "population_proper": "2388294"
  }, 
  {
    "city": "Yunfu", 
    "lat": "22.9152", 
    "lng": "112.0445", 
    "country": "China", 
    "iso2": "CN", 
    "admin_name": "Guangdong", 
    "capital": "minor", 
    "population": "2383350", 
    "population_proper": "2383350"
  }, 
  {
    "city": "Luoyang", 
    "lat": "34.6197", 
    "lng": "112.4539", 
    "country": "China", 
    "iso2": "CN", 
    "admin_name": "Henan", 
    "capital": "", 
    "population": "2372571", 
    "population_proper": "2372572"
  }, 
  {
    "city": "Anshun", 
    "lat": "26.2531", 
    "lng": "105.9476", 
    "country": "China", 
    "iso2": "CN", 
    "admin_name": "Guizhou", 
    "capital": "", 
    "population": "2353100", 
    "population_proper": "2353100"
  }, 
  {
    "city": "Yingkou", 
    "lat": "40.6250", 
    "lng": "122.2190", 
    "country": "China", 
    "iso2": "CN", 
    "admin_name": "Liaoning", 
    "capital": "minor", 
    "population": "2328582", 
    "population_proper": "2328582"
  }, 
  {
    "city": "Yanjiang", 
    "lat": "30.1290", 
    "lng": "104.6270", 
    "country": "China", 
    "iso2": "CN", 
    "admin_name": "Sichuan", 
    "capital": "minor", 
    "population": "2308631", 
    "population_proper": "2308631"
  }, 
  {
    "city": "Mudanjiang", 
    "lat": "44.5514", 
    "lng": "129.6329", 
    "country": "China", 
    "iso2": "CN", 
    "admin_name": "Heilongjiang", 
    "capital": "minor", 
    "population": "2290208", 
    "population_proper": "2290208"
  }, 
  {
    "city": "Yan’an", 
    "lat": "36.6500", 
    "lng": "109.4940", 
    "country": "China", 
    "iso2": "CN", 
    "admin_name": "Shaanxi", 
    "capital": "", 
    "population": "2282581", 
    "population_proper": "2282581"
  }, 
  {
    "city": "Jincheng", 
    "lat": "35.4910", 
    "lng": "112.8520", 
    "country": "China", 
    "iso2": "CN", 
    "admin_name": "Shanxi", 
    "capital": "minor", 
    "population": "2279146", 
    "population_proper": "2279146"
  }, 
  {
    "city": "Nantong", 
    "lat": "31.9810", 
    "lng": "120.8940", 
    "country": "China", 
    "iso2": "CN", 
    "admin_name": "Jiangsu", 
    "capital": "minor", 
    "population": "2261382", 
    "population_proper": "2261383"
  }, 
  {
    "city": "Lincang", 
    "lat": "23.8840", 
    "lng": "100.0890", 
    "country": "China", 
    "iso2": "CN", 
    "admin_name": "Yunnan", 
    "capital": "", 
    "population": "2257991", 
    "population_proper": "2257991"
  }, 
  {
    "city": "Yuxi", 
    "lat": "24.3470", 
    "lng": "102.5270", 
    "country": "China", 
    "iso2": "CN", 
    "admin_name": "Yunnan", 
    "capital": "minor", 
    "population": "2249502", 
    "population_proper": "2249502"
  }, 
  {
    "city": "Laibin", 
    "lat": "23.7501", 
    "lng": "109.2212", 
    "country": "China", 
    "iso2": "CN", 
    "admin_name": "Guangxi", 
    "capital": "minor", 
    "population": "2233900", 
    "population_proper": "2233900"
  }, 
  {
    "city": "Shengli", 
    "lat": "37.4340", 
    "lng": "118.6746", 
    "country": "China", 
    "iso2": "CN", 
    "admin_name": "Shandong", 
    "capital": "minor", 
    "population": "2193518", 
    "population_proper": "2193518"
  }, 
  {
    "city": "Dandong", 
    "lat": "40.1167", 
    "lng": "124.3833", 
    "country": "China", 
    "iso2": "CN", 
    "admin_name": "Liaoning", 
    "capital": "", 
    "population": "2188436", 
    "population_proper": "2188436"
  }, 
  {
    "city": "Qinbaling", 
    "lat": "35.7278", 
    "lng": "107.6400", 
    "country": "China", 
    "iso2": "CN", 
    "admin_name": "Gansu", 
    "capital": "", 
    "population": "2179716", 
    "population_proper": "2179716"
  }, 
  {
    "city": "Gaoping", 
    "lat": "30.7824", 
    "lng": "106.1281", 
    "country": "China", 
    "iso2": "CN", 
    "admin_name": "Sichuan", 
    "capital": "minor", 
    "population": "2174000", 
    "population_proper": "2174000"
  }, 
  {
    "city": "Taizhou", 
    "lat": "28.6557", 
    "lng": "121.4208", 
    "country": "China", 
    "iso2": "CN", 
    "admin_name": "Zhejiang", 
    "capital": "minor", 
    "population": "2162461", 
    "population_proper": "2162461"
  }, 
  {
    "city": "Ma’anshan", 
    "lat": "31.6690", 
    "lng": "118.5070", 
    "country": "China", 
    "iso2": "CN", 
    "admin_name": "Anhui", 
    "capital": "minor", 
    "population": "2159930", 
    "population_proper": "2159930"
  }, 
  {
    "city": "Puning", 
    "lat": "23.2980", 
    "lng": "116.1660", 
    "country": "China", 
    "iso2": "CN", 
    "admin_name": "Guangdong", 
    "capital": "", 
    "population": "2118200", 
    "population_proper": "2118200"
  }, 
  {
    "city": "Huaibei", 
    "lat": "33.9560", 
    "lng": "116.7980", 
    "country": "China", 
    "iso2": "CN", 
    "admin_name": "Anhui", 
    "capital": "", 
    "population": "2114276", 
    "population_proper": "2114276"
  }, 
  {
    "city": "Chongzuo", 
    "lat": "22.3770", 
    "lng": "107.3650", 
    "country": "China", 
    "iso2": "CN", 
    "admin_name": "Guangxi", 
    "capital": "minor", 
    "population": "2099400", 
    "population_proper": "2099400"
  }, 
  {
    "city": "Yushan", 
    "lat": "31.3220", 
    "lng": "120.9850", 
    "country": "China", 
    "iso2": "CN", 
    "admin_name": "Jiangsu", 
    "capital": "minor", 
    "population": "2092496", 
    "population_proper": "2092496"
  }, 
  {
    "city": "Hezhou", 
    "lat": "24.4042", 
    "lng": "111.5672", 
    "country": "China", 
    "iso2": "CN", 
    "admin_name": "Guangxi", 
    "capital": "minor", 
    "population": "2072600", 
    "population_proper": "2072600"
  }, 
  {
    "city": "Pingliang", 
    "lat": "35.5424", 
    "lng": "106.6649", 
    "country": "China", 
    "iso2": "CN", 
    "admin_name": "Gansu", 
    "capital": "minor", 
    "population": "2068033", 
    "population_proper": "2068033"
  }, 
  {
    "city": "Qingyang", 
    "lat": "24.7816", 
    "lng": "118.5517", 
    "country": "China", 
    "iso2": "CN", 
    "admin_name": "Fujian", 
    "capital": "minor", 
    "population": "2061600", 
    "population_proper": "2061600"
  }, 
  {
    "city": "Shangzhou", 
    "lat": "33.8680", 
    "lng": "109.9244", 
    "country": "China", 
    "iso2": "CN", 
    "admin_name": "Shaanxi", 
    "capital": "", 
    "population": "2041231", 
    "population_proper": "2041231"
  }, 
  {
    "city": "Sanmenxia", 
    "lat": "34.7732", 
    "lng": "111.2004", 
    "country": "China", 
    "iso2": "CN", 
    "admin_name": "Henan", 
    "capital": "", 
    "population": "2034872", 
    "population_proper": "2034872"
  }, 
  {
    "city": "Baicheng", 
    "lat": "45.6200", 
    "lng": "122.8380", 
    "country": "China", 
    "iso2": "CN", 
    "admin_name": "Jilin", 
    "capital": "minor", 
    "population": "2032356", 
    "population_proper": "2032356"
  }, 
  {
    "city": "Pingxiang", 
    "lat": "27.6590", 
    "lng": "113.8870", 
    "country": "China", 
    "iso2": "CN", 
    "admin_name": "Jiangxi", 
    "capital": "minor", 
    "population": "1933200", 
    "population_proper": "1933200"
  }, 
  {
    "city": "Yinchuan", 
    "lat": "38.4850", 
    "lng": "106.2250", 
    "country": "China", 
    "iso2": "CN", 
    "admin_name": "Ningxia", 
    "capital": "admin", 
    "population": "1901793", 
    "population_proper": "1901793"
  }, 
  {
    "city": "Xiping", 
    "lat": "40.0820", 
    "lng": "113.2981", 
    "country": "China", 
    "iso2": "CN", 
    "admin_name": "Shanxi", 
    "capital": "minor", 
    "population": "1873000", 
    "population_proper": "1873000"
  }, 
  {
    "city": "Jixi", 
    "lat": "45.2950", 
    "lng": "130.9690", 
    "country": "China", 
    "iso2": "CN", 
    "admin_name": "Heilongjiang", 
    "capital": "minor", 
    "population": "1862165", 
    "population_proper": "1862165"
  }, 
  {
    "city": "Fushun", 
    "lat": "41.8810", 
    "lng": "123.9570", 
    "country": "China", 
    "iso2": "CN", 
    "admin_name": "Liaoning", 
    "capital": "", 
    "population": "1861372", 
    "population_proper": "1861372"
  }, 
  {
    "city": "Beihai", 
    "lat": "21.4810", 
    "lng": "109.1200", 
    "country": "China", 
    "iso2": "CN", 
    "admin_name": "Guangxi", 
    "capital": "minor", 
    "population": "1853227", 
    "population_proper": "1853227"
  }, 
  {
    "city": "Fuxin", 
    "lat": "42.0220", 
    "lng": "121.6700", 
    "country": "China", 
    "iso2": "CN", 
    "admin_name": "Liaoning", 
    "capital": "", 
    "population": "1819339", 
    "population_proper": "1819339"
  }, 
  {
    "city": "Wuwei", 
    "lat": "37.9290", 
    "lng": "102.6380", 
    "country": "China", 
    "iso2": "CN", 
    "admin_name": "Gansu", 
    "capital": "minor", 
    "population": "1815059", 
    "population_proper": "1815059"
  }, 
  {
    "city": "Siping", 
    "lat": "43.1668", 
    "lng": "124.3506", 
    "country": "China", 
    "iso2": "CN", 
    "admin_name": "Jilin", 
    "capital": "minor", 
    "population": "1814733", 
    "population_proper": "1814733"
  }, 
  {
    "city": "Shuyangzha", 
    "lat": "34.1299", 
    "lng": "118.7734", 
    "country": "China", 
    "iso2": "CN", 
    "admin_name": "Jiangsu", 
    "capital": "", 
    "population": "1770000", 
    "population_proper": "1770000"
  }, 
  {
    "city": "Shuozhou", 
    "lat": "39.3317", 
    "lng": "112.4329", 
    "country": "China", 
    "iso2": "CN", 
    "admin_name": "Shanxi", 
    "capital": "minor", 
    "population": "1714857", 
    "population_proper": "1714857"
  }, 
  {
    "city": "Sanzhou", 
    "lat": "30.8200", 
    "lng": "108.4000", 
    "country": "China", 
    "iso2": "CN", 
    "admin_name": "Chongqing", 
    "capital": "", 
    "population": "1680000", 
    "population_proper": "1680000"
  }, 
  {
    "city": "Changshu", 
    "lat": "31.6560", 
    "lng": "120.7530", 
    "country": "China", 
    "iso2": "CN", 
    "admin_name": "Jiangsu", 
    "capital": "", 
    "population": "1677050", 
    "population_proper": "1677050"
  }, 
  {
    "city": "Heihe", 
    "lat": "50.2401", 
    "lng": "127.5210", 
    "country": "China", 
    "iso2": "CN", 
    "admin_name": "Heilongjiang", 
    "capital": "minor", 
    "population": "1673899", 
    "population_proper": "1673899"
  }, 
  {
    "city": "Ximeicun", 
    "lat": "24.9612", 
    "lng": "118.3849", 
    "country": "China", 
    "iso2": "CN", 
    "admin_name": "Fujian", 
    "capital": "", 
    "population": "1663542", 
    "population_proper": "1663542"
  }, 
  {
    "city": "Jingdezhen", 
    "lat": "29.2917", 
    "lng": "117.1986", 
    "country": "China", 
    "iso2": "CN", 
    "admin_name": "Jiangxi", 
    "capital": "minor", 
    "population": "1618979", 
    "population_proper": "1618979"
  }, 
  {
    "city": "Liaoyang", 
    "lat": "41.2790", 
    "lng": "123.1760", 
    "country": "China", 
    "iso2": "CN", 
    "admin_name": "Liaoning", 
    "capital": "", 
    "population": "1604580", 
    "population_proper": "1604580"
  }, 
  {
    "city": "Chengtangcun", 
    "lat": "35.0833", 
    "lng": "117.1500", 
    "country": "China", 
    "iso2": "CN", 
    "admin_name": "Shandong", 
    "capital": "", 
    "population": "1603659", 
    "population_proper": "1603659"
  }, 
  {
    "city": "Jiangyin", 
    "lat": "31.8390", 
    "lng": "120.2950", 
    "country": "China", 
    "iso2": "CN", 
    "admin_name": "Jiangsu", 
    "capital": "", 
    "population": "1595138", 
    "population_proper": "1285785"
  }, 
  {
    "city": "Hebi", 
    "lat": "35.7480", 
    "lng": "114.2970", 
    "country": "China", 
    "iso2": "CN", 
    "admin_name": "Henan", 
    "capital": "", 
    "population": "1569208", 
    "population_proper": "1569208"
  }, 
  {
    "city": "Huzhou", 
    "lat": "30.8925", 
    "lng": "120.0875", 
    "country": "China", 
    "iso2": "CN", 
    "admin_name": "Zhejiang", 
    "capital": "minor", 
    "population": "1558826", 
    "population_proper": "1558826"
  }, 
  {
    "city": "Jiaxing", 
    "lat": "30.7470", 
    "lng": "120.7560", 
    "country": "China", 
    "iso2": "CN", 
    "admin_name": "Zhejiang", 
    "capital": "minor", 
    "population": "1518654", 
    "population_proper": "1518654"
  }, 
  {
    "city": "Zhangjiajie", 
    "lat": "29.1170", 
    "lng": "110.4790", 
    "country": "China", 
    "iso2": "CN", 
    "admin_name": "Hunan", 
    "capital": "minor", 
    "population": "1517027", 
    "population_proper": "1517027"
  }, 
  {
    "city": "Baiyin", 
    "lat": "36.5451", 
    "lng": "104.1389", 
    "country": "China", 
    "iso2": "CN", 
    "admin_name": "Gansu", 
    "capital": "minor", 
    "population": "1512110", 
    "population_proper": "1512110"
  }, 
  {
    "city": "Guiping", 
    "lat": "23.4000", 
    "lng": "110.0833", 
    "country": "China", 
    "iso2": "CN", 
    "admin_name": "Guangxi", 
    "capital": "minor", 
    "population": "1511011", 
    "population_proper": "1511011"
  }, 
  {
    "city": "Lianjiang", 
    "lat": "21.7333", 
    "lng": "110.2833", 
    "country": "China", 
    "iso2": "CN", 
    "admin_name": "Guangdong", 
    "capital": "", 
    "population": "1509400", 
    "population_proper": "1509400"
  }, 
  {
    "city": "Jianguang", 
    "lat": "28.1958", 
    "lng": "115.7833", 
    "country": "China", 
    "iso2": "CN", 
    "admin_name": "Jiangxi", 
    "capital": "", 
    "population": "1507402", 
    "population_proper": "1507402"
  }, 
  {
    "city": "Yucheng", 
    "lat": "30.0100", 
    "lng": "103.0415", 
    "country": "China", 
    "iso2": "CN", 
    "admin_name": "Sichuan", 
    "capital": "minor", 
    "population": "1507258", 
    "population_proper": "1507258"
  }, 
  {
    "city": "Xushan", 
    "lat": "30.1667", 
    "lng": "121.2333", 
    "country": "China", 
    "iso2": "CN", 
    "admin_name": "Zhejiang", 
    "capital": "minor", 
    "population": "1502000", 
    "population_proper": "1502000"
  }, 
  {
    "city": "Leizhou", 
    "lat": "20.9143", 
    "lng": "110.0967", 
    "country": "China", 
    "iso2": "CN", 
    "admin_name": "Guangdong", 
    "capital": "minor", 
    "population": "1494700", 
    "population_proper": "1494700"
  }, 
  {
    "city": "Huazhou", 
    "lat": "32.6880", 
    "lng": "112.0870", 
    "country": "China", 
    "iso2": "CN", 
    "admin_name": "Henan", 
    "capital": "minor", 
    "population": "1468061", 
    "population_proper": "1468061"
  }, 
  {
    "city": "Jinhua", 
    "lat": "29.0790", 
    "lng": "119.6470", 
    "country": "China", 
    "iso2": "CN", 
    "admin_name": "Zhejiang", 
    "capital": "minor", 
    "population": "1463990", 
    "population_proper": "1463990"
  }, 
  {
    "city": "Pizhou", 
    "lat": "34.3980", 
    "lng": "117.8900", 
    "country": "China", 
    "iso2": "CN", 
    "admin_name": "Jiangsu", 
    "capital": "", 
    "population": "1458038", 
    "population_proper": "1458038"
  }, 
  {
    "city": "Yangshe", 
    "lat": "31.8767", 
    "lng": "120.5560", 
    "country": "China", 
    "iso2": "CN", 
    "admin_name": "Jiangsu", 
    "capital": "minor", 
    "population": "1447600", 
    "population_proper": "1447600"
  }, 
  {
    "city": "Rui’an", 
    "lat": "27.7833", 
    "lng": "120.6250", 
    "country": "China", 
    "iso2": "CN", 
    "admin_name": "Zhejiang", 
    "capital": "", 
    "population": "1424667", 
    "population_proper": "1424667"
  }, 
  {
    "city": "Wenling", 
    "lat": "28.3667", 
    "lng": "121.3667", 
    "country": "China", 
    "iso2": "CN", 
    "admin_name": "Zhejiang", 
    "capital": "", 
    "population": "1416199", 
    "population_proper": "1416199"
  }, 
  {
    "city": "Gaozhou", 
    "lat": "21.9244", 
    "lng": "110.8422", 
    "country": "China", 
    "iso2": "CN", 
    "admin_name": "Guangdong", 
    "capital": "minor", 
    "population": "1414100", 
    "population_proper": "1414100"
  }, 
  {
    "city": "Fuqing", 
    "lat": "25.7167", 
    "lng": "119.3833", 
    "country": "China", 
    "iso2": "CN", 
    "admin_name": "Fujian", 
    "capital": "minor", 
    "population": "1390487", 
    "population_proper": "1390487"
  }, 
  {
    "city": "Wuzhong", 
    "lat": "37.9978", 
    "lng": "106.1986", 
    "country": "China", 
    "iso2": "CN", 
    "admin_name": "Ningxia", 
    "capital": "minor", 
    "population": "1382713", 
    "population_proper": "1382713"
  }, 
  {
    "city": "Pingdu", 
    "lat": "36.7769", 
    "lng": "119.9884", 
    "country": "China", 
    "iso2": "CN", 
    "admin_name": "Shandong", 
    "capital": "", 
    "population": "1378900", 
    "population_proper": "1378900"
  }, 
  {
    "city": "Yangquan", 
    "lat": "37.8571", 
    "lng": "113.5804", 
    "country": "China", 
    "iso2": "CN", 
    "admin_name": "Shanxi", 
    "capital": "minor", 
    "population": "1368502", 
    "population_proper": "1368502"
  }, 
  {
    "city": "Yutan", 
    "lat": "28.2780", 
    "lng": "112.5520", 
    "country": "China", 
    "iso2": "CN", 
    "admin_name": "Hunan", 
    "capital": "minor", 
    "population": "1368117", 
    "population_proper": "1368117"
  }, 
  {
    "city": "Chizhou", 
    "lat": "30.6654", 
    "lng": "117.4916", 
    "country": "China", 
    "iso2": "CN", 
    "admin_name": "Anhui", 
    "capital": "minor", 
    "population": "1342764", 
    "population_proper": "1342764"
  }, 
  {
    "city": "Liangshi", 
    "lat": "27.2600", 
    "lng": "111.7442", 
    "country": "China", 
    "iso2": "CN", 
    "admin_name": "Hunan", 
    "capital": "", 
    "population": "1335900", 
    "population_proper": "1335900"
  }, 
  {
    "city": "Huangshan", 
    "lat": "29.7149", 
    "lng": "118.3376", 
    "country": "China", 
    "iso2": "CN", 
    "admin_name": "Anhui", 
    "capital": "minor", 
    "population": "1330565", 
    "population_proper": "1330565"
  }, 
  {
    "city": "Benxi", 
    "lat": "41.4868", 
    "lng": "123.6850", 
    "country": "China", 
    "iso2": "CN", 
    "admin_name": "Liaoning", 
    "capital": "", 
    "population": "1326018", 
    "population_proper": "1326018"
  }, 
  {
    "city": "Xintai", 
    "lat": "35.9090", 
    "lng": "117.7680", 
    "country": "China", 
    "iso2": "CN", 
    "admin_name": "Shandong", 
    "capital": "", 
    "population": "1315942", 
    "population_proper": "1315942"
  }, 
  {
    "city": "Wusong", 
    "lat": "30.9333", 
    "lng": "117.7667", 
    "country": "China", 
    "iso2": "CN", 
    "admin_name": "Anhui", 
    "capital": "minor", 
    "population": "1311726", 
    "population_proper": "1311726"
  }, 
  {
    "city": "Yushu", 
    "lat": "44.8260", 
    "lng": "126.5500", 
    "country": "China", 
    "iso2": "CN", 
    "admin_name": "Jilin", 
    "capital": "minor", 
    "population": "1304436", 
    "population_proper": "1304436"
  }, 
  {
    "city": "Kuaidamao", 
    "lat": "41.7283", 
    "lng": "125.9397", 
    "country": "China", 
    "iso2": "CN", 
    "admin_name": "Jilin", 
    "capital": "minor", 
    "population": "1302778", 
    "population_proper": "1302778"
  }, 
  {
    "city": "Huazhou", 
    "lat": "21.6640", 
    "lng": "110.6396", 
    "country": "China", 
    "iso2": "CN", 
    "admin_name": "Guangdong", 
    "capital": "", 
    "population": "1302100", 
    "population_proper": "1302100"
  }, 
  {
    "city": "Baishan", 
    "lat": "41.9440", 
    "lng": "126.4147", 
    "country": "China", 
    "iso2": "CN", 
    "admin_name": "Jilin", 
    "capital": "minor", 
    "population": "1296127", 
    "population_proper": "1296127"
  }, 
  {
    "city": "Haicheng", 
    "lat": "40.8824", 
    "lng": "122.6852", 
    "country": "China", 
    "iso2": "CN", 
    "admin_name": "Liaoning", 
    "capital": "minor", 
    "population": "1293877", 
    "population_proper": "1293877"
  }, 
  {
    "city": "Yicheng", 
    "lat": "31.3600", 
    "lng": "119.8150", 
    "country": "China", 
    "iso2": "CN", 
    "admin_name": "Jiangsu", 
    "capital": "minor", 
    "population": "1285785", 
    "population_proper": "1285785"
  }, 
  {
    "city": "Rucheng", 
    "lat": "32.2460", 
    "lng": "120.5910", 
    "country": "China", 
    "iso2": "CN", 
    "admin_name": "Jiangsu", 
    "capital": "minor", 
    "population": "1267066", 
    "population_proper": "1267066"
  }, 
  {
    "city": "Huaiyin", 
    "lat": "33.5819", 
    "lng": "119.0280", 
    "country": "China", 
    "iso2": "CN", 
    "admin_name": "Jiangsu", 
    "capital": "", 
    "population": "1264000", 
    "population_proper": "1264000"
  }, 
  {
    "city": "Dayan", 
    "lat": "26.8552", 
    "lng": "100.2259", 
    "country": "China", 
    "iso2": "CN", 
    "admin_name": "Yunnan", 
    "capital": "", 
    "population": "1253878", 
    "population_proper": "1253878"
  }, 
  {
    "city": "Shaoyang", 
    "lat": "32.9120", 
    "lng": "119.8526", 
    "country": "China", 
    "iso2": "CN", 
    "admin_name": "Jiangsu", 
    "capital": "minor", 
    "population": "1253548", 
    "population_proper": "1253548"
  }, 
  {
    "city": "Laiwu", 
    "lat": "36.1833", 
    "lng": "117.6667", 
    "country": "China", 
    "iso2": "CN", 
    "admin_name": "Shandong", 
    "capital": "", 
    "population": "1248636", 
    "population_proper": "1248636"
  }, 
  {
    "city": "Jingling", 
    "lat": "30.6640", 
    "lng": "113.1670", 
    "country": "China", 
    "iso2": "CN", 
    "admin_name": "Hubei", 
    "capital": "", 
    "population": "1247400", 
    "population_proper": "1247400"
  }, 
  {
    "city": "Yongcheng", 
    "lat": "33.9299", 
    "lng": "116.4500", 
    "country": "China", 
    "iso2": "CN", 
    "admin_name": "Henan", 
    "capital": "", 
    "population": "1240382", 
    "population_proper": "1240382"
  }, 
  {
    "city": "Yiwu", 
    "lat": "29.3069", 
    "lng": "120.0753", 
    "country": "China", 
    "iso2": "CN", 
    "admin_name": "Zhejiang", 
    "capital": "minor", 
    "population": "1234015", 
    "population_proper": "1234015"
  }, 
  {
    "city": "Beidao", 
    "lat": "34.6020", 
    "lng": "105.9180", 
    "country": "China", 
    "iso2": "CN", 
    "admin_name": "Gansu", 
    "capital": "minor", 
    "population": "1225000", 
    "population_proper": "1225000"
  }, 
  {
    "city": "Xiangshui", 
    "lat": "26.5964", 
    "lng": "104.8314", 
    "country": "China", 
    "iso2": "CN", 
    "admin_name": "Guizhou", 
    "capital": "", 
    "population": "1221000", 
    "population_proper": "1221000"
  }, 
  {
    "city": "Dadukou", 
    "lat": "26.5824", 
    "lng": "101.7184", 
    "country": "China", 
    "iso2": "CN", 
    "admin_name": "Sichuan", 
    "capital": "minor", 
    "population": "1214121", 
    "population_proper": "1214121"
  }, 
  {
    "city": "Lingcheng", 
    "lat": "22.7000", 
    "lng": "110.3500", 
    "country": "China", 
    "iso2": "CN", 
    "admin_name": "Guangxi", 
    "capital": "", 
    "population": "1211637", 
    "population_proper": "1211637"
  }, 
  {
    "city": "Shuangyashan", 
    "lat": "46.6762", 
    "lng": "131.1416", 
    "country": "China", 
    "iso2": "CN", 
    "admin_name": "Heilongjiang", 
    "capital": "minor", 
    "population": "1208803", 
    "population_proper": "1208803"
  }, 
  {
    "city": "Xinyu", 
    "lat": "27.8186", 
    "lng": "114.9167", 
    "country": "China", 
    "iso2": "CN", 
    "admin_name": "Jiangxi", 
    "capital": "minor", 
    "population": "1202499", 
    "population_proper": "1202499"
  }, 
  {
    "city": "Zhangye", 
    "lat": "38.9248", 
    "lng": "100.4499", 
    "country": "China", 
    "iso2": "CN", 
    "admin_name": "Gansu", 
    "capital": "minor", 
    "population": "1199515", 
    "population_proper": "1199515"
  }, 
  {
    "city": "Rongcheng", 
    "lat": "26.2180", 
    "lng": "104.1030", 
    "country": "China", 
    "iso2": "CN", 
    "admin_name": "Yunnan", 
    "capital": "", 
    "population": "1189813", 
    "population_proper": "1189813"
  }, 
  {
    "city": "Liaoyuan", 
    "lat": "42.8880", 
    "lng": "125.1447", 
    "country": "China", 
    "iso2": "CN", 
    "admin_name": "Jilin", 
    "capital": "minor", 
    "population": "1176239", 
    "population_proper": "1176239"
  }, 
  {
    "city": "Guankou", 
    "lat": "28.1637", 
    "lng": "113.6433", 
    "country": "China", 
    "iso2": "CN", 
    "admin_name": "Hunan", 
    "capital": "minor", 
    "population": "1168056", 
    "population_proper": "1168056"
  }, 
  {
    "city": "Lianyuan", 
    "lat": "27.6920", 
    "lng": "111.6640", 
    "country": "China", 
    "iso2": "CN", 
    "admin_name": "Hunan", 
    "capital": "minor", 
    "population": "1162928", 
    "population_proper": "1162928"
  }, 
  {
    "city": "Rongcheng", 
    "lat": "29.8402", 
    "lng": "112.9048", 
    "country": "China", 
    "iso2": "CN", 
    "admin_name": "Hubei", 
    "capital": "minor", 
    "population": "1162770", 
    "population_proper": "1162770"
  }, 
  {
    "city": "Kaiyuan", 
    "lat": "36.0193", 
    "lng": "113.8600", 
    "country": "China", 
    "iso2": "CN", 
    "admin_name": "Henan", 
    "capital": "minor", 
    "population": "1160000", 
    "population_proper": "1160000"
  }, 
  {
    "city": "Zhuji", 
    "lat": "29.7167", 
    "lng": "120.2333", 
    "country": "China", 
    "iso2": "CN", 
    "admin_name": "Zhejiang", 
    "capital": "minor", 
    "population": "1157938", 
    "population_proper": "1157938"
  }, 
  {
    "city": "Yingtan", 
    "lat": "28.2721", 
    "lng": "117.0395", 
    "country": "China", 
    "iso2": "CN", 
    "admin_name": "Jiangxi", 
    "capital": "", 
    "population": "1154223", 
    "population_proper": "1154223"
  }, 
  {
    "city": "Leiyang", 
    "lat": "26.4223", 
    "lng": "112.8598", 
    "country": "China", 
    "iso2": "CN", 
    "admin_name": "Hunan", 
    "capital": "minor", 
    "population": "1151554", 
    "population_proper": "1151554"
  }, 
  {
    "city": "Yichun", 
    "lat": "47.7280", 
    "lng": "128.8410", 
    "country": "China", 
    "iso2": "CN", 
    "admin_name": "Heilongjiang", 
    "capital": "minor", 
    "population": "1148126", 
    "population_proper": "1148126"
  }, 
  {
    "city": "Guyuan", 
    "lat": "36.0100", 
    "lng": "106.2570", 
    "country": "China", 
    "iso2": "CN", 
    "admin_name": "Ningxia", 
    "capital": "", 
    "population": "1142142", 
    "population_proper": "1142142"
  }, 
  {
    "city": "Xiantao", 
    "lat": "30.3280", 
    "lng": "113.4430", 
    "country": "China", 
    "iso2": "CN", 
    "admin_name": "Hubei", 
    "capital": "", 
    "population": "1140100", 
    "population_proper": "1140100"
  }, 
  {
    "city": "Yingchuan", 
    "lat": "34.1511", 
    "lng": "113.4733", 
    "country": "China", 
    "iso2": "CN", 
    "admin_name": "Henan", 
    "capital": "minor", 
    "population": "1131896", 
    "population_proper": "1131896"
  }, 
  {
    "city": "Dongtai", 
    "lat": "32.7950", 
    "lng": "120.5190", 
    "country": "China", 
    "iso2": "CN", 
    "admin_name": "Jiangsu", 
    "capital": "minor", 
    "population": "1098100", 
    "population_proper": "1098100"
  }, 
  {
    "city": "Dingzhou", 
    "lat": "38.5160", 
    "lng": "114.9900", 
    "country": "China", 
    "iso2": "CN", 
    "admin_name": "Hebei", 
    "capital": "minor", 
    "population": "1095986", 
    "population_proper": "1095986"
  }, 
  {
    "city": "Xibeijie", 
    "lat": "39.7334", 
    "lng": "98.4943", 
    "country": "China", 
    "iso2": "CN", 
    "admin_name": "Gansu", 
    "capital": "minor", 
    "population": "1095947", 
    "population_proper": "1095947"
  }, 
  {
    "city": "Yuyao", 
    "lat": "30.0500", 
    "lng": "121.1500", 
    "country": "China", 
    "iso2": "CN", 
    "admin_name": "Zhejiang", 
    "capital": "", 
    "population": "1095000", 
    "population_proper": "1095000"
  }, 
  {
    "city": "Hanchuan", 
    "lat": "30.6520", 
    "lng": "113.8274", 
    "country": "China", 
    "iso2": "CN", 
    "admin_name": "Hubei", 
    "capital": "", 
    "population": "1092700", 
    "population_proper": "1092700"
  }, 
  {
    "city": "Gongzhuling", 
    "lat": "43.5053", 
    "lng": "124.8224", 
    "country": "China", 
    "iso2": "CN", 
    "admin_name": "Jilin", 
    "capital": "minor", 
    "population": "1092692", 
    "population_proper": "1092692"
  }, 
  {
    "city": "Zhufeng", 
    "lat": "36.0000", 
    "lng": "119.4167", 
    "country": "China", 
    "iso2": "CN", 
    "admin_name": "Shandong", 
    "capital": "", 
    "population": "1081960", 
    "population_proper": "1081960"
  }, 
  {
    "city": "Ezhou", 
    "lat": "30.3914", 
    "lng": "114.8949", 
    "country": "China", 
    "iso2": "CN", 
    "admin_name": "Hubei", 
    "capital": "minor", 
    "population": "1079353", 
    "population_proper": "1079353"
  }, 
  {
    "city": "Xiashi", 
    "lat": "30.5333", 
    "lng": "120.6833", 
    "country": "China", 
    "iso2": "CN", 
    "admin_name": "Zhejiang", 
    "capital": "minor", 
    "population": "1076199", 
    "population_proper": "1076199"
  }, 
  {
    "city": "Zhongwei", 
    "lat": "37.5002", 
    "lng": "105.1968", 
    "country": "China", 
    "iso2": "CN", 
    "admin_name": "Ningxia", 
    "capital": "minor", 
    "population": "1067336", 
    "population_proper": "1067336"
  }, 
  {
    "city": "Mizhou", 
    "lat": "35.9900", 
    "lng": "119.3801", 
    "country": "China", 
    "iso2": "CN", 
    "admin_name": "Shandong", 
    "capital": "minor", 
    "population": "1060000", 
    "population_proper": "1060000"
  }, 
  {
    "city": "Xishan", 
    "lat": "27.6461", 
    "lng": "113.4970", 
    "country": "China", 
    "iso2": "CN", 
    "admin_name": "Hunan", 
    "capital": "minor", 
    "population": "1060000", 
    "population_proper": "1060000"
  }, 
  {
    "city": "Hegang", 
    "lat": "47.3501", 
    "lng": "130.2980", 
    "country": "China", 
    "iso2": "CN", 
    "admin_name": "Heilongjiang", 
    "capital": "minor", 
    "population": "1058665", 
    "population_proper": "1058665"
  }, 
  {
    "city": "Fangchenggang", 
    "lat": "21.6867", 
    "lng": "108.3547", 
    "country": "China", 
    "iso2": "CN", 
    "admin_name": "Guangxi", 
    "capital": "minor", 
    "population": "1046068", 
    "population_proper": "1046068"
  }, 
  {
    "city": "Jiancheng", 
    "lat": "30.3931", 
    "lng": "104.5465", 
    "country": "China", 
    "iso2": "CN", 
    "admin_name": "Sichuan", 
    "capital": "minor", 
    "population": "1045900", 
    "population_proper": "1045900"
  }, 
  {
    "city": "Shouguang", 
    "lat": "36.8570", 
    "lng": "118.7910", 
    "country": "China", 
    "iso2": "CN", 
    "admin_name": "Shandong", 
    "capital": "", 
    "population": "1039205", 
    "population_proper": "1039205"
  }, 
  {
    "city": "Sanya", 
    "lat": "18.2533", 
    "lng": "109.5036", 
    "country": "China", 
    "iso2": "CN", 
    "admin_name": "Hainan", 
    "capital": "minor", 
    "population": "1031396", 
    "population_proper": "1031396"
  }, 
  {
    "city": "Wutong", 
    "lat": "30.6333", 
    "lng": "120.5333", 
    "country": "China", 
    "iso2": "CN", 
    "admin_name": "Zhejiang", 
    "capital": "minor", 
    "population": "1029754", 
    "population_proper": "1029754"
  }, 
  {
    "city": "Linhai", 
    "lat": "28.8500", 
    "lng": "121.1167", 
    "country": "China", 
    "iso2": "CN", 
    "admin_name": "Zhejiang", 
    "capital": "", 
    "population": "1028813", 
    "population_proper": "1028813"
  }, 
  {
    "city": "Wafangdian", 
    "lat": "39.6271", 
    "lng": "121.9796", 
    "country": "China", 
    "iso2": "CN", 
    "admin_name": "Liaoning", 
    "capital": "", 
    "population": "1024876", 
    "population_proper": "1024876"
  }, 
  {
    "city": "Zhongxiang", 
    "lat": "31.1690", 
    "lng": "112.5853", 
    "country": "China", 
    "iso2": "CN", 
    "admin_name": "Hubei", 
    "capital": "", 
    "population": "1022514", 
    "population_proper": "1022514"
  }, 
  {
    "city": "Xinyi", 
    "lat": "22.3549", 
    "lng": "110.9468", 
    "country": "China", 
    "iso2": "CN", 
    "admin_name": "Guangdong", 
    "capital": "", 
    "population": "1013900", 
    "population_proper": "1013900"
  }, 
  {
    "city": "Zaoyang", 
    "lat": "32.1290", 
    "lng": "112.7720", 
    "country": "China", 
    "iso2": "CN", 
    "admin_name": "Hubei", 
    "capital": "", 
    "population": "1004741", 
    "population_proper": "1004741"
  }, 
  {
    "city": "Xingyi", 
    "lat": "25.0920", 
    "lng": "104.8955", 
    "country": "China", 
    "iso2": "CN", 
    "admin_name": "Guizhou", 
    "capital": "", 
    "population": "1004132", 
    "population_proper": "1004132"
  }, 
  {
    "city": "Shuizhai", 
    "lat": "33.4433", 
    "lng": "114.8994", 
    "country": "China", 
    "iso2": "CN", 
    "admin_name": "Henan", 
    "capital": "", 
    "population": "1003698", 
    "population_proper": "1003698"
  }, 
  {
    "city": "Zhangjiakou Shi Xuanhua Qu", 
    "lat": "40.5944", 
    "lng": "115.0243", 
    "country": "China", 
    "iso2": "CN", 
    "admin_name": "Hebei", 
    "capital": "minor", 
    "population": "409745", 
    "population_proper": "409745"
  }, 
  {
    "city": "Lianhu", 
    "lat": "34.2585", 
    "lng": "108.9242", 
    "country": "China", 
    "iso2": "CN", 
    "admin_name": "Shaanxi", 
    "capital": "minor", 
    "population": "", 
    "population_proper": ""
  }, 
  {
    "city": "Binhu", 
    "lat": "32.0301", 
    "lng": "118.7577", 
    "country": "China", 
    "iso2": "CN", 
    "admin_name": "Jiangsu", 
    "capital": "minor", 
    "population": "", 
    "population_proper": ""
  }, 
  {
    "city": "Hongkou", 
    "lat": "31.2500", 
    "lng": "121.4892", 
    "country": "China", 
    "iso2": "CN", 
    "admin_name": "Shanghai", 
    "capital": "minor", 
    "population": "", 
    "population_proper": ""
  }, 
  {
    "city": "Wulaocun", 
    "lat": "32.0344", 
    "lng": "118.7958", 
    "country": "China", 
    "iso2": "CN", 
    "admin_name": "Jiangsu", 
    "capital": "minor", 
    "population": "", 
    "population_proper": ""
  }, 
  {
    "city": "Changning", 
    "lat": "31.2174", 
    "lng": "121.4211", 
    "country": "China", 
    "iso2": "CN", 
    "admin_name": "Shanghai", 
    "capital": "minor", 
    "population": "", 
    "population_proper": ""
  }, 
  {
    "city": "Xixiangtang", 
    "lat": "22.8376", 
    "lng": "108.3116", 
    "country": "China", 
    "iso2": "CN", 
    "admin_name": "Guangxi", 
    "capital": "minor", 
    "population": "", 
    "population_proper": ""
  }, 
  {
    "city": "Dayingmen", 
    "lat": "39.1073", 
    "lng": "117.2096", 
    "country": "China", 
    "iso2": "CN", 
    "admin_name": "Tianjin", 
    "capital": "minor", 
    "population": "", 
    "population_proper": ""
  }, 
  {
    "city": "Wuma", 
    "lat": "28.0173", 
    "lng": "120.6659", 
    "country": "China", 
    "iso2": "CN", 
    "admin_name": "Zhejiang", 
    "capital": "minor", 
    "population": "", 
    "population_proper": ""
  }, 
  {
    "city": "Yanping", 
    "lat": "26.6381", 
    "lng": "118.1682", 
    "country": "China", 
    "iso2": "CN", 
    "admin_name": "Fujian", 
    "capital": "minor", 
    "population": "", 
    "population_proper": ""
  }, 
  {
    "city": "Chaowai", 
    "lat": "39.9181", 
    "lng": "116.4324", 
    "country": "China", 
    "iso2": "CN", 
    "admin_name": "Beijing", 
    "capital": "minor", 
    "population": "", 
    "population_proper": ""
  }, 
  {
    "city": "Liuxiang", 
    "lat": "37.8714", 
    "lng": "112.5605", 
    "country": "China", 
    "iso2": "CN", 
    "admin_name": "Shanxi", 
    "capital": "minor", 
    "population": "", 
    "population_proper": ""
  }, 
  {
    "city": "Changhongjie", 
    "lat": "39.1373", 
    "lng": "117.1475", 
    "country": "China", 
    "iso2": "CN", 
    "admin_name": "Tianjin", 
    "capital": "minor", 
    "population": "", 
    "population_proper": ""
  }, 
  {
    "city": "Yangpu", 
    "lat": "31.2619", 
    "lng": "121.5190", 
    "country": "China", 
    "iso2": "CN", 
    "admin_name": "Shanghai", 
    "capital": "minor", 
    "population": "", 
    "population_proper": ""
  }, 
  {
    "city": "Zhangyelu", 
    "lat": "36.0575", 
    "lng": "103.8227", 
    "country": "China", 
    "iso2": "CN", 
    "admin_name": "Gansu", 
    "capital": "minor", 
    "population": "", 
    "population_proper": ""
  }, 
  {
    "city": "Jinrongjie", 
    "lat": "39.9122", 
    "lng": "116.3562", 
    "country": "China", 
    "iso2": "CN", 
    "admin_name": "Beijing", 
    "capital": "minor", 
    "population": "", 
    "population_proper": ""
  }, 
  {
    "city": "Huancuilou", 
    "lat": "37.5004", 
    "lng": "122.1140", 
    "country": "China", 
    "iso2": "CN", 
    "admin_name": "Shandong", 
    "capital": "minor", 
    "population": "", 
    "population_proper": ""
  }, 
  {
    "city": "Weiyang", 
    "lat": "34.2906", 
    "lng": "108.9355", 
    "country": "China", 
    "iso2": "CN", 
    "admin_name": "Shaanxi", 
    "capital": "minor", 
    "population": "", 
    "population_proper": ""
  }, 
  {
    "city": "Meiyuan Xincun", 
    "lat": "32.0542", 
    "lng": "118.7928", 
    "country": "China", 
    "iso2": "CN", 
    "admin_name": "Jiangsu", 
    "capital": "minor", 
    "population": "", 
    "population_proper": ""
  }, 
  {
    "city": "Dongtundu", 
    "lat": "28.1837", 
    "lng": "113.0321", 
    "country": "China", 
    "iso2": "CN", 
    "admin_name": "Hunan", 
    "capital": "minor", 
    "population": "", 
    "population_proper": ""
  }, 
  {
    "city": "Sanjiang", 
    "lat": "31.3481", 
    "lng": "118.3613", 
    "country": "China", 
    "iso2": "CN", 
    "admin_name": "Anhui", 
    "capital": "minor", 
    "population": "", 
    "population_proper": ""
  }, 
  {
    "city": "Dongjie", 
    "lat": "26.0882", 
    "lng": "119.2945", 
    "country": "China", 
    "iso2": "CN", 
    "admin_name": "Fujian", 
    "capital": "minor", 
    "population": "", 
    "population_proper": ""
  }, 
  {
    "city": "Haidian", 
    "lat": "39.9906", 
    "lng": "116.2887", 
    "country": "China", 
    "iso2": "CN", 
    "admin_name": "Beijing", 
    "capital": "minor", 
    "population": "", 
    "population_proper": ""
  }, 
  {
    "city": "Nanchansi", 
    "lat": "31.5624", 
    "lng": "120.3002", 
    "country": "China", 
    "iso2": "CN", 
    "admin_name": "Jiangsu", 
    "capital": "minor", 
    "population": "", 
    "population_proper": ""
  }, 
  {
    "city": "Xinluoqu", 
    "lat": "25.1022", 
    "lng": "117.0303", 
    "country": "China", 
    "iso2": "CN", 
    "admin_name": "Fujian", 
    "capital": "minor", 
    "population": "", 
    "population_proper": ""
  }, 
  {
    "city": "Daoli", 
    "lat": "45.7559", 
    "lng": "126.6034", 
    "country": "China", 
    "iso2": "CN", 
    "admin_name": "Heilongjiang", 
    "capital": "minor", 
    "population": "", 
    "population_proper": ""
  }, 
  {
    "city": "Gulou", 
    "lat": "40.3700", 
    "lng": "116.8335", 
    "country": "China", 
    "iso2": "CN", 
    "admin_name": "Beijing", 
    "capital": "minor", 
    "population": "", 
    "population_proper": ""
  }, 
  {
    "city": "Xuhui", 
    "lat": "31.1959", 
    "lng": "121.4471", 
    "country": "China", 
    "iso2": "CN", 
    "admin_name": "Shanghai", 
    "capital": "minor", 
    "population": "", 
    "population_proper": ""
  }, 
  {
    "city": "Xihu", 
    "lat": "36.0673", 
    "lng": "103.7765", 
    "country": "China", 
    "iso2": "CN", 
    "admin_name": "Gansu", 
    "capital": "minor", 
    "population": "", 
    "population_proper": ""
  }, 
  {
    "city": "Xiaobailou", 
    "lat": "39.1177", 
    "lng": "117.2056", 
    "country": "China", 
    "iso2": "CN", 
    "admin_name": "Tianjin", 
    "capital": "minor", 
    "population": "", 
    "population_proper": ""
  }, 
  {
    "city": "Nangang", 
    "lat": "45.7549", 
    "lng": "126.6456", 
    "country": "China", 
    "iso2": "CN", 
    "admin_name": "Heilongjiang", 
    "capital": "minor", 
    "population": "", 
    "population_proper": ""
  }, 
  {
    "city": "Pingjianglu", 
    "lat": "31.3147", 
    "lng": "120.6298", 
    "country": "China", 
    "iso2": "CN", 
    "admin_name": "Jiangsu", 
    "capital": "minor", 
    "population": "", 
    "population_proper": ""
  }, 
  {
    "city": "Chong’ansi", 
    "lat": "31.5799", 
    "lng": "120.2952", 
    "country": "China", 
    "iso2": "CN", 
    "admin_name": "Jiangsu", 
    "capital": "minor", 
    "population": "", 
    "population_proper": ""
  }, 
  {
    "city": "Xincheng", 
    "lat": "34.2632", 
    "lng": "108.9495", 
    "country": "China", 
    "iso2": "CN", 
    "admin_name": "Shaanxi", 
    "capital": "minor", 
    "population": "", 
    "population_proper": ""
  }, 
  {
    "city": "Luwan", 
    "lat": "31.2091", 
    "lng": "121.4634", 
    "country": "China", 
    "iso2": "CN", 
    "admin_name": "Shanghai", 
    "capital": "minor", 
    "population": "", 
    "population_proper": ""
  }, 
  {
    "city": "Chengzhong", 
    "lat": "24.3152", 
    "lng": "109.4127", 
    "country": "China", 
    "iso2": "CN", 
    "admin_name": "Guangxi", 
    "capital": "minor", 
    "population": "", 
    "population_proper": ""
  }
]